"Recip_County","Recip_State","Month","Year","Total","Lat","Long","Cases"
"Abbeville County","SC",12,2020,0,34.229041,-82.454058,35084
"Accomack County","VA",12,2020,0,37.765944,-75.757807,47215
"Ada County","ID",12,2020,0,43.451477,-116.244376,1007571
"Adair County","IA",12,2020,0,41.328528,-94.478164,16315
"Adair County","MO",12,2020,0,40.190666,-92.603592,46014
"Adair County","OK",12,2020,0,35.898043,-94.651026,47977
"Adams County","CO",12,2020,0,39.874325,-104.331872,1114726
"Adams County","IA",12,2020,0,41.021656,-94.696906,6834
"Adams County","ID",12,2020,0,44.877004,-116.461624,5230
"Adams County","IL",12,2020,0,39.986052,-91.194961,175313
"Adams County","IN",12,2020,0,40.74573,-84.936134,71454
"Adams County","MS",12,2020,0,31.486224,-91.351797,50757
"Adams County","ND",12,2020,0,46.096815,-102.533198,5837
"Adams County","NE",12,2020,0,40.520632,-98.500044,64312
"Adams County","OH",12,2020,0,38.834468,-83.478082,34623
"Adams County","PA",12,2020,0,39.869471,-77.21773,101354
"Adams County","WA",12,2020,0,47.011238,-118.512861,46587
"Adams County","WI",12,2020,0,43.973757,-89.767228,40507
"Addison County","VT",12,2020,0,44.031248,-73.141581,6892
"Aiken County","SC",12,2020,0,33.550013,-81.632983,241708
"Aitkin County","MN",12,2020,0,46.602446,-93.41976,28696
"Alachua County","FL",12,2020,0,29.67574,-82.357221,445187
"Alamance County","NC",12,2020,0,36.043954,-79.400573,273545
"Alameda County","CA",12,2020,0,37.647139,-121.912488,1247644
"Alamosa County","CO",12,2020,0,37.568442,-105.788041,25152
"Albany County","NY",12,2020,0,42.58824,-73.97401,264960
"Albany County","WY",12,2020,0,41.665514,-105.721883,103179
"Albemarle County","VA",12,2020,0,38.024184,-78.553506,72916
"Alcona County","MI",12,2020,0,44.657509,-83.29458,9227
"Alcorn County","MS",12,2020,0,34.886569,-88.581109,57632
"Alexander County","IL",12,2020,0,37.183658,-89.349516,9527
"Alexander County","NC",12,2020,0,35.920951,-81.177467,66296
"Alfalfa County","OK",12,2020,0,36.729703,-98.323445,21885
"Alger County","MI",12,2020,0,46.521736,-86.657119,12078
"Allamakee County","IA",12,2020,0,43.274964,-91.382751,32155
"Allegan County","MI",12,2020,0,42.421251,-86.261403,157986
"Allegany County","NY",12,2020,0,42.247853,-78.026153,45035
"Alleghany County","NC",12,2020,0,36.489356,-81.132299,15768
"Alleghany County","VA",12,2020,0,37.787905,-80.008669,16712
"Allegheny County","PA",12,2020,0,40.469757,-79.980451,1308188
"Allen County","IN",12,2020,0,41.091909,-85.071791,759585
"Allen County","OH",12,2020,0,40.771627,-84.106103,218008
"Allendale County","SC",12,2020,0,32.979757,-81.363265,14785
"Alpena County","MI",12,2020,0,44.894954,-83.426574,30529
"Alpine County","CA",12,2020,0,38.621783,-119.798352,1854
"Amador County","CA",12,2020,0,38.443549,-120.653858,46633
"Amelia County","VA",12,2020,0,37.331927,-77.977462,9495
"Amherst County","VA",12,2020,0,37.629304,-79.154667,35090
"Amite County","MS",12,2020,0,31.203933,-90.795542,22971
"Anderson County","SC",12,2020,0,34.521235,-82.638603,310423
"Anderson County","TN",12,2020,0,36.116731,-84.195418,136586
"Anderson County","TX",12,2020,0,31.841261,-95.661727,120269
"Andrew County","MO",12,2020,0,39.988863,-94.803551,30167
"Andrews County","TX",12,2020,0,32.312258,-102.640206,38630
"Angelina County","TX",12,2020,0,31.251896,-94.611134,142798
"Anoka County","MN",12,2020,0,45.27411,-93.242723,827750
"Anson County","NC",12,2020,0,34.974972,-80.109763,36528
"Antelope County","NE",12,2020,0,42.183225,-98.058037,12136
"Antrim County","MI",12,2020,0,45.005455,-85.175639,17067
"Apache County","AZ",12,2020,0,35.385084,-109.490172,202900
"Appanoose County","IA",12,2020,0,40.744249,-92.873062,27595
"Appling County","GA",12,2020,0,31.739712,-82.290103,45864
"Appomattox County","VA",12,2020,0,37.370725,-78.81094,16892
"Aransas County","TX",12,2020,0,28.122621,-96.967501,18326
"Arapahoe County","CO",12,2020,0,39.644554,-104.331706,1052030
"Archer County","TX",12,2020,0,33.616305,-98.687267,12813
"Archuleta County","CO",12,2020,0,37.202395,-107.050863,12408
"Arenac County","MI",12,2020,0,44.036833,-83.740675,16949
"Arkansas County","AR",12,2020,0,34.28957,-91.376547,35240
"Arlington County","VA",12,2020,0,38.878337,-77.100703,235929
"Armstrong County","PA",12,2020,0,40.81238,-79.464129,81298
"Armstrong County","TX",12,2020,0,34.964179,-101.356636,2666
"Arthur County","NE",12,2020,0,41.57193,-101.695917,512
"Ashe County","NC",12,2020,0,36.443469,-81.499334,31482
"Ashland County","OH",12,2020,0,40.843273,-82.270127,63836
"Ashland County","WI",12,2020,0,46.544424,-90.679691,28526
"Ashley County","AR",12,2020,0,33.190835,-91.772267,33765
"Ashtabula County","OH",12,2020,0,41.906637,-80.745592,102013
"Asotin County","WA",12,2020,0,46.181861,-117.227781,25870
"Atascosa County","TX",12,2020,0,28.891478,-98.535381,72189
"Atchison County","MO",12,2020,0,40.431846,-95.437555,7619
"Athens County","OH",12,2020,0,39.332755,-82.045885,82704
"Atkinson County","GA",12,2020,0,31.296806,-82.878151,21124
"Atlantic County","NJ",12,2020,0,39.469355,-74.633759,313830
"Atoka County","OK",12,2020,0,34.392469,-96.036558,33373
"Attala County","MS",12,2020,0,33.090468,-89.588622,45502
"Audrain County","MO",12,2020,0,39.214481,-91.843418,50338
"Audubon County","IA",12,2020,0,41.679178,-94.904312,10477
"Auglaize County","OH",12,2020,0,40.561309,-84.224018,97268
"Augusta County","VA",12,2020,0,38.17259,-79.140975,71076
"Aurora County","SD",12,2020,0,43.724719,-98.577587,12149
"Austin County","TX",12,2020,0,29.891901,-96.27017,25522
"Autauga County","AL",12,2020,0,32.532237,-86.64644,108652
"Avery County","NC",12,2020,0,36.07209,-81.920285,36635
"Baca County","CO",12,2020,0,37.30978,-102.543741,4769
"Bacon County","GA",12,2020,0,31.55021,-82.451433,26974
"Bailey County","TX",12,2020,0,34.067521,-102.830345,19802
"Baker County","FL",12,2020,0,30.324442,-82.302284,69560
"Baker County","GA",12,2020,0,31.31958,-84.454881,4407
"Baker County","OR",12,2020,0,44.703427,-117.691933,11688
"Baldwin County","AL",12,2020,0,30.659218,-87.746067,348455
"Baldwin County","GA",12,2020,0,33.05949,-83.255457,89902
"Bamberg County","SC",12,2020,0,33.203021,-81.053161,26228
"Bandera County","TX",12,2020,0,29.756389,-99.248285,13151
"Banks County","GA",12,2020,0,34.351922,-83.498441,31896
"Banner County","NE",12,2020,0,41.53975,-103.726263,657
"Bannock County","ID",12,2020,0,42.692921,-112.228982,175654
"Baraga County","MI",12,2020,0,46.695859,-88.36181,18361
"Barbour County","AL",12,2020,0,31.870253,-85.405104,40753
"Barbour County","WV",12,2020,0,39.139725,-79.996947,18207
"Barnes County","ND",12,2020,0,46.94255,-98.070195,36385
"Barnstable County","MA",12,2020,0,41.706123,-70.164823,130371
"Barnwell County","SC",12,2020,0,33.260552,-81.434228,36664
"Barron County","WI",12,2020,0,45.437192,-91.852892,129639
"Barrow County","GA",12,2020,0,33.992009,-83.712303,134694
"Barry County","MI",12,2020,0,42.582811,-85.31455,83055
"Barry County","MO",12,2020,0,36.699376,-93.834334,51033
"Bartholomew County","IN",12,2020,0,39.205843,-85.897999,145217
"Barton County","MO",12,2020,0,37.500799,-94.344089,21822
"Bartow County","GA",12,2020,0,34.240917,-84.838188,202007
"Bastrop County","TX",12,2020,0,30.100772,-97.310639,96985
"Bates County","MO",12,2020,0,38.257217,-94.339246,21336
"Bath County","VA",12,2020,0,38.068368,-79.731203,3206
"Baxter County","AR",12,2020,0,36.280268,-92.329949,54034
"Bay County","FL",12,2020,0,30.15914,-85.534395,315397
"Bay County","MI",12,2020,0,43.699711,-83.978701,172186
"Bayfield County","WI",12,2020,0,46.634199,-91.177282,26459
"Baylor County","TX",12,2020,0,33.618802,-99.208189,4169
"Beadle County","SD",12,2020,0,44.418265,-98.279422,75255
"Bear Lake County","ID",12,2020,0,42.285892,-111.327517,7246
"Beaufort County","NC",12,2020,0,35.482313,-76.842014,64857
"Beaufort County","SC",12,2020,0,32.358112,-80.689422,257081
"Beaver County","OK",12,2020,0,36.748334,-100.483056,8312
"Beaver County","PA",12,2020,0,40.68414,-80.350721,200852
"Beaver County","UT",12,2020,0,38.357535,-113.238948,8321
"Beaverhead County","MT",12,2020,0,45.133863,-112.892869,21333
"Becker County","MN",12,2020,0,46.937629,-95.741757,77183
"Beckham County","OK",12,2020,0,35.270601,-99.690057,51628
"Bedford County","PA",12,2020,0,39.998634,-78.494747,74197
"Bedford County","TN",12,2020,0,35.51366,-86.458294,116971
"Bedford County","VA",12,2020,0,37.312257,-79.527223,76563
"Bee County","TX",12,2020,0,28.416077,-97.742586,72498
"Belknap County","NH",12,2020,0,43.519109,-71.425366,41810
"Bell County","TX",12,2020,0,31.04275,-97.481268,331775
"Belmont County","OH",12,2020,0,40.017682,-80.967727,79809
"Beltrami County","MN",12,2020,0,47.879508,-95.00505,81532
"Ben Hill County","GA",12,2020,0,31.740772,-83.147197,39326
"Benewah County","ID",12,2020,0,47.218451,-116.633541,10944
"Bennett County","SD",12,2020,0,43.186912,-101.677181,10540
"Bennington County","VT",12,2020,0,43.035328,-73.111496,10550
"Benson County","ND",12,2020,0,48.071743,-99.351152,27986
"Bent County","CO",12,2020,0,37.931891,-103.077584,21743
"Benton County","AR",12,2020,0,36.337819,-94.256298,463420
"Benton County","IA",12,2020,0,42.092547,-92.05763,58232
"Benton County","IN",12,2020,0,40.600939,-87.314786,19214
"Benton County","MN",12,2020,0,45.701225,-94.00144,111519
"Benton County","MO",12,2020,0,38.301036,-93.287942,32108
"Benton County","MS",12,2020,0,34.809593,-89.200213,18033
"Benton County","OR",12,2020,0,44.493882,-123.424664,34260
"Benton County","TN",12,2020,0,36.070948,-88.071232,32004
"Benton County","WA",12,2020,0,46.228125,-119.516659,315697
"Benzie County","MI",12,2020,0,44.636844,-86.231999,17955
"Bergen County","NJ",12,2020,0,40.959698,-74.074727,1294036
"Berkeley County","SC",12,2020,0,33.2077,-79.953655,251516
"Berkeley County","WV",12,2020,0,39.447938,-78.037754,148544
"Berks County","PA",12,2020,0,40.413957,-75.92686,586629
"Berkshire County","MA",12,2020,0,42.371493,-73.217928,71557
"Bernalillo County","NM",12,2020,0,35.053628,-106.66908,1085324
"Berrien County","GA",12,2020,0,31.288652,-83.22787,28077
"Berrien County","MI",12,2020,0,41.791382,-86.742543,261402
"Bertie County","NC",12,2020,0,36.059043,-76.962364,32939
"Bexar County","TX",12,2020,0,29.448671,-98.520147,3043189
"Bibb County","AL",12,2020,0,33.015893,-87.127148,47009
"Bibb County","GA",12,2020,0,32.808845,-83.694194,273565
"Big Horn County","MT",12,2020,0,45.407868,-107.518162,60746
"Big Horn County","WY",12,2020,0,44.525117,-107.994848,19968
"Big Stone County","MN",12,2020,0,45.419925,-96.402226,12286
"Billings County","ND",12,2020,0,47.007044,-103.364016,1400
"Bingham County","ID",12,2020,0,43.216357,-112.399206,102533
"Black Hawk County","IA",12,2020,0,42.471132,-92.3076,371452
"Blackford County","IN",12,2020,0,40.472672,-85.32373,24319
"Bladen County","NC",12,2020,0,34.591938,-78.539489,49176
"Blaine County","ID",12,2020,0,43.394192,-113.955371,45770
"Blaine County","MT",12,2020,0,48.428282,-108.967648,17804
"Blaine County","NE",12,2020,0,41.931945,-99.996407,465
"Blaine County","OK",12,2020,0,35.877795,-98.429031,16863
"Blair County","PA",12,2020,0,40.498683,-78.309597,196945
"Blanco County","TX",12,2020,0,30.266456,-98.399217,7394
"Bland County","VA",12,2020,0,37.130612,-81.125853,11201
"Bleckley County","GA",12,2020,0,32.435403,-83.331717,25661
"Bledsoe County","TN",12,2020,0,35.593561,-85.20591,43007
"Blount County","AL",12,2020,0,33.977358,-86.56644,121270
"Blount County","TN",12,2020,0,35.688185,-83.922973,243552
"Blue Earth County","MN",12,2020,0,44.03371,-94.064012,145868
"Boise County","ID",12,2020,0,43.987275,-115.71511,6443
"Bolivar County","MS",12,2020,0,33.799139,-90.88412,90423
"Bollinger County","MO",12,2020,0,37.318427,-90.024645,28029
"Bon Homme County","SD",12,2020,0,42.985799,-97.884199,44352
"Bond County","IL",12,2020,0,38.885924,-89.436592,41867
"Bonner County","ID",12,2020,0,48.324634,-116.62745,46770
"Bonneville County","ID",12,2020,0,43.395171,-111.621878,288347
"Boone County","AR",12,2020,0,36.304299,-93.079236,69024
"Boone County","IA",12,2020,0,42.038623,-93.938605,51662
"Boone County","IL",12,2020,0,42.318983,-88.824295,141882
"Boone County","IN",12,2020,0,40.050892,-86.469014,113430
"Boone County","MO",12,2020,0,38.989861,-92.310202,378191
"Boone County","NE",12,2020,0,41.703934,-98.070476,11892
"Boone County","WV",12,2020,0,38.022814,-81.713538,26497
"Borden County","TX",12,2020,0,32.73859,-101.439199,425
"Bosque County","TX",12,2020,0,31.900819,-97.637641,20413
"Botetourt County","VA",12,2020,0,37.565482,-79.797546,31915
"Bottineau County","ND",12,2020,0,48.794412,-100.831257,18215
"Boulder County","CO",12,2020,0,40.094966,-105.397702,411449
"Boundary County","ID",12,2020,0,48.773131,-116.524668,14300
"Bowie County","TX",12,2020,0,33.446065,-94.422393,103153
"Bowman County","ND",12,2020,0,46.110144,-103.505943,8204
"Box Butte County","NE",12,2020,0,42.21038,-103.081779,22461
"Box Elder County","UT",12,2020,0,41.622623,-113.060252,91975
"Boyd County","NE",12,2020,0,42.894448,-98.773022,4793
"Bradford County","FL",12,2020,0,29.952386,-82.166698,53747
"Bradford County","PA",12,2020,0,41.791504,-76.502123,78286
"Bradley County","AR",12,2020,0,33.466549,-92.169156,22763
"Bradley County","TN",12,2020,0,35.153914,-84.859414,227351
"Branch County","MI",12,2020,0,41.918455,-85.066885,111292
"Brantley County","GA",12,2020,0,31.197334,-81.982978,28340
"Braxton County","WV",12,2020,0,38.69933,-80.73166,6125
"Brazoria County","TX",12,2020,0,29.167817,-95.434647,549704
"Brazos County","TX",12,2020,0,30.656713,-96.302394,394245
"Bremer County","IA",12,2020,0,42.780895,-92.327356,66417
"Brevard County","FL",12,2020,17044,28.298311,-80.700333,568114
"Brewster County","TX",12,2020,0,29.808997,-103.252458,24715
"Briscoe County","TX",12,2020,0,34.525172,-101.205893,2168
"Bristol County","MA",12,2020,0,41.748588,-71.088894,848804
"Bristol County","RI",12,2020,0,41.70684,-71.286687,53888
"Broadwater County","MT",12,2020,0,46.329849,-111.497873,7861
"Brooke County","WV",12,2020,0,40.272645,-80.578691,32637
"Brookings County","SD",12,2020,0,44.376675,-96.797797,85077
"Brooks County","GA",12,2020,0,30.822934,-83.581905,26471
"Brooks County","TX",12,2020,0,27.034994,-98.215276,15782
"Broome County","NY",12,2020,0,42.161977,-75.830283,208837
"Broomfield County","CO",12,2020,0,39.953593,-105.050787,77235
"Broward County","FL",12,2020,71743,26.193535,-80.476683,3812073
"Brown County","IL",12,2020,0,39.962069,-90.750309,12185
"Brown County","IN",12,2020,0,39.195113,-86.230121,17530
"Brown County","MN",12,2020,0,44.246541,-94.733647,56441
"Brown County","NE",12,2020,0,42.359562,-99.92392,5991
"Brown County","OH",12,2020,0,38.931377,-83.866772,56518
"Brown County","SD",12,2020,0,45.589254,-98.352175,127015
"Brown County","TX",12,2020,0,31.764137,-98.998456,70473
"Brown County","WI",12,2020,0,44.474024,-87.99613,800650
"Brule County","SD",12,2020,0,43.729873,-99.092909,18934
"Brunswick County","NC",12,2020,0,34.038754,-78.227765,115444
"Brunswick County","VA",12,2020,0,36.764204,-77.861483,16789
"Bryan County","GA",12,2020,0,32.017969,-81.438543,53102
"Bryan County","OK",12,2020,0,33.964004,-96.265135,104504
"Buchanan County","IA",12,2020,0,42.470328,-91.838666,41488
"Buchanan County","MO",12,2020,0,39.660369,-94.808173,231359
"Buchanan County","VA",12,2020,0,37.26812,-82.038151,18990
"Buckingham County","VA",12,2020,0,37.573928,-78.529169,35486
"Bucks County","PA",12,2020,0,40.336887,-75.10706,768966
"Buena Vista County","IA",12,2020,0,42.741522,-95.141432,106321
"Buffalo County","NE",12,2020,0,40.855265,-99.074984,125218
"Buffalo County","SD",12,2020,0,44.044306,-99.203998,12413
"Buffalo County","WI",12,2020,0,44.385633,-91.761294,28818
"Bulloch County","GA",12,2020,0,32.394481,-81.741618,125840
"Bullock County","AL",12,2020,0,32.101759,-85.717261,23348
"Buncombe County","NC",12,2020,0,35.609371,-82.530423,227475
"Bureau County","IL",12,2020,0,41.401304,-89.528377,78184
"Burke County","GA",12,2020,0,33.060181,-82.000164,43655
"Burke County","NC",12,2020,0,35.746182,-81.70618,160693
"Burke County","ND",12,2020,0,48.786453,-102.520087,5920
"Burleigh County","ND",12,2020,0,46.978829,-100.469533,405531
"Burleson County","TX",12,2020,0,30.493487,-96.622091,25533
"Burlington County","NJ",12,2020,0,39.875786,-74.663006,546469
"Burnet County","TX",12,2020,0,30.78963,-98.201187,53899
"Burnett County","WI",12,2020,0,45.866897,-92.37573,31206
"Burt County","NE",12,2020,0,41.854179,-96.337746,15298
"Butler County","AL",12,2020,0,31.751667,-86.681969,41741
"Butler County","IA",12,2020,0,42.734757,-92.780153,36216
"Butler County","MO",12,2020,0,36.71518,-90.40313,79294
"Butler County","NE",12,2020,0,41.226072,-97.132039,21511
"Butler County","OH",12,2020,0,39.439747,-84.565734,675342
"Butler County","PA",12,2020,0,40.913847,-79.918978,216482
"Butte County","CA",12,2020,0,39.665336,-121.603209,175254
"Butte County","ID",12,2020,0,43.685101,-113.177631,4523
"Butte County","SD",12,2020,0,44.896226,-103.501436,25184
"Butts County","GA",12,2020,0,33.290355,-83.958221,42803
"Cabarrus County","NC",12,2020,0,35.388346,-80.552728,282054
"Cabell County","WV",12,2020,0,38.419578,-82.243397,127573
"Cache County","UT",12,2020,0,41.734118,-111.745394,299810
"Caddo County","OK",12,2020,0,35.16792,-98.381045,74995
"Calaveras County","CA",12,2020,0,38.191068,-120.554107,25150
"Caldwell County","MO",12,2020,0,39.658998,-93.979179,14788
"Caldwell County","NC",12,2020,0,35.966396,-81.51254,145100
"Caldwell County","TX",12,2020,0,29.832399,-97.628141,66431
"Caledonia County","VT",12,2020,0,44.468791,-72.112168,6051
"Calhoun County","AL",12,2020,0,33.770516,-85.827909,252416
"Calhoun County","AR",12,2020,0,33.56046,-92.513879,5817
"Calhoun County","FL",12,2020,0,30.388801,-85.197915,32042
"Calhoun County","GA",12,2020,0,31.521279,-84.62629,10536
"Calhoun County","IA",12,2020,0,42.38617,-94.643683,35307
"Calhoun County","IL",12,2020,0,39.164262,-90.666295,10310
"Calhoun County","MI",12,2020,0,42.24299,-85.012385,222013
"Calhoun County","MS",12,2020,0,33.936634,-89.337114,29729
"Calhoun County","SC",12,2020,0,33.67478,-80.780347,20912
"Calhoun County","TX",12,2020,0,28.441719,-96.579574,34458
"Calhoun County","WV",12,2020,0,38.844159,-81.115478,3311
"Callahan County","TX",12,2020,0,32.29315,-99.372249,16365
"Callaway County","MO",12,2020,0,38.835547,-91.923446,104264
"Calumet County","WI",12,2020,0,44.07841,-88.212132,145561
"Camas County","ID",12,2020,0,43.502552,-114.772135,1729
"Cambria County","PA",12,2020,0,40.510227,-78.710477,221776
"Camden County","GA",12,2020,0,30.913358,-81.642019,66855
"Camden County","MO",12,2020,0,38.026527,-92.765327,87806
"Camden County","NC",12,2020,0,36.342344,-76.162488,7282
"Camden County","NJ",12,2020,0,39.802407,-74.961249,758474
"Cameron County","PA",12,2020,0,41.438291,-78.198323,2624
"Cameron County","TX",12,2020,0,26.102923,-97.478958,863587
"Camp County","TX",12,2020,0,32.974581,-94.979085,19522
"Campbell County","SD",12,2020,0,45.785575,-100.002107,3381
"Campbell County","TN",12,2020,0,36.401592,-84.159249,66676
"Campbell County","VA",12,2020,0,37.210152,-79.095428,49625
"Campbell County","WY",12,2020,0,44.191999,-105.517014,113449
"Canadian County","OK",12,2020,0,35.543354,-97.979889,277592
"Candler County","GA",12,2020,0,32.40395,-82.071266,19956
"Cannon County","TN",12,2020,0,35.808394,-86.062404,34108
"Canyon County","ID",12,2020,0,43.625796,-116.709058,572524
"Cape Girardeau County","MO",12,2020,0,37.384141,-89.685658,211164
"Cape May County","NJ",12,2020,0,39.085841,-74.846354,63441
"Carbon County","MT",12,2020,0,45.224468,-109.028554,20074
"Carbon County","PA",12,2020,0,40.918367,-75.705039,64281
"Carbon County","UT",12,2020,0,39.673284,-110.588484,29710
"Carbon County","WY",12,2020,0,41.70359,-106.933153,26514
"Caribou County","ID",12,2020,0,42.786072,-111.544273,14960
"Carlton County","MN",12,2020,0,46.603818,-92.671044,73006
"Caroline County","VA",12,2020,0,38.028033,-77.353736,25906
"Carroll County","AR",12,2020,0,36.33737,-93.540972,55937
"Carroll County","GA",12,2020,0,33.582237,-85.080527,206966
"Carroll County","IA",12,2020,0,42.039502,-94.86765,68234
"Carroll County","IL",12,2020,0,42.0709,-89.924189,38076
"Carroll County","IN",12,2020,0,40.58498,-86.565141,33235
"Carroll County","MO",12,2020,0,39.427375,-93.500227,17376
"Carroll County","MS",12,2020,0,33.440795,-89.918887,26537
"Carroll County","NH",12,2020,0,43.867774,-71.20156,20354
"Carroll County","OH",12,2020,0,40.579884,-81.090787,26758
"Carroll County","TN",12,2020,0,35.965748,-88.452379,70701
"Carroll County","VA",12,2020,0,36.731963,-80.727831,38957
"Carson County","TX",12,2020,0,35.405496,-101.355356,6788
"Carter County","MO",12,2020,0,36.944858,-90.945705,10643
"Carter County","MT",12,2020,0,45.516825,-104.515324,4028
"Carter County","OK",12,2020,0,34.251848,-97.287927,68362
"Carter County","TN",12,2020,0,36.284744,-82.126593,114104
"Carteret County","NC",12,2020,0,34.858343,-76.53586,69798
"Carver County","MN",12,2020,0,44.82132,-93.800091,182644
"Cascade County","MT",12,2020,0,47.316575,-111.350262,187599
"Cass County","IA",12,2020,0,41.333824,-94.933302,29252
"Cass County","IL",12,2020,0,39.969202,-90.245704,41195
"Cass County","IN",12,2020,0,40.753799,-86.355168,115560
"Cass County","MI",12,2020,0,41.917243,-86.000142,86664
"Cass County","MN",12,2020,0,46.951745,-94.333705,54526
"Cass County","MO",12,2020,0,38.646474,-94.354547,149800
"Cass County","ND",12,2020,0,46.927003,-97.252375,581602
"Cass County","NE",12,2020,0,40.909878,-96.140609,45382
"Cass County","TX",12,2020,0,33.083698,-94.357579,33604
"Cassia County","ID",12,2020,0,42.282313,-113.626328,73839
"Castro County","TX",12,2020,0,34.533621,-102.258786,20652
"Caswell County","NC",12,2020,0,36.394298,-79.339609,30770
"Catawba County","NC",12,2020,0,35.661883,-81.214906,282847
"Catoosa County","GA",12,2020,0,34.900212,-85.139385,86279
"Catron County","NM",12,2020,0,33.901621,-108.391928,1577
"Cattaraugus County","NY",12,2020,0,42.239099,-78.662332,57172
"Cavalier County","ND",12,2020,0,48.768439,-98.46379,12346
"Cayuga County","NY",12,2020,0,43.008546,-76.574587,55063
"Cedar County","IA",12,2020,0,41.77236,-91.132611,39255
"Cedar County","MO",12,2020,0,37.733655,-93.850014,14727
"Cedar County","NE",12,2020,0,42.60456,-97.25687,15476
"Centre County","PA",12,2020,0,40.909322,-77.847667,241747
"Cerro Gordo County","IA",12,2020,0,43.074975,-93.250965,125292
"Chaffee County","CO",12,2020,0,38.734599,-106.300025,26607
"Chambers County","AL",12,2020,0,32.915504,-85.394032,64015
"Chambers County","TX",12,2020,0,29.696374,-94.669445,74535
"Champaign County","IL",12,2020,0,40.138985,-88.196975,390529
"Champaign County","OH",12,2020,0,40.132775,-83.767604,47863
"Chariton County","MO",12,2020,0,39.517968,-92.96162,8930
"Charles City County","VA",12,2020,0,37.361054,-77.05417,5113
"Charles Mix County","SD",12,2020,0,43.206185,-98.595143,31878
"Charleston County","SC",12,2020,0,32.800458,-79.94248,683283
"Charlevoix County","MI",12,2020,0,45.618554,-85.543684,24075
"Charlotte County","FL",12,2020,0,26.906396,-82.003657,193732
"Charlotte County","VA",12,2020,0,37.009042,-78.658568,9961
"Charlton County","GA",12,2020,0,30.779904,-82.139644,28344
"Chase County","NE",12,2020,0,40.53039,-101.694192,9531
"Chatham County","GA",12,2020,0,31.980404,-81.085184,378544
"Chatham County","NC",12,2020,0,35.704994,-79.251454,81559
"Chattahoochee County","GA",12,2020,0,32.347445,-84.788021,66201
"Chattooga County","GA",12,2020,0,34.474178,-85.345289,47229
"Chautauqua County","NY",12,2020,0,42.304216,-79.407595,77670
"Chaves County","NM",12,2020,0,33.361604,-104.469837,192255
"Cheatham County","TN",12,2020,0,36.255169,-87.100808,69652
"Cheboygan County","MI",12,2020,0,45.476022,-84.495431,20250
"Chelan County","WA",12,2020,0,47.860974,-120.619041,138235
"Chemung County","NY",12,2020,0,42.148697,-76.752471,119361
"Chenango County","NY",12,2020,0,42.478024,-75.602241,28143
"Cherokee County","AL",12,2020,0,34.069515,-85.654242,38180
"Cherokee County","GA",12,2020,0,34.244317,-84.475057,416191
"Cherokee County","IA",12,2020,0,42.742737,-95.633262,34190
"Cherokee County","NC",12,2020,0,35.13715,-84.061449,33938
"Cherokee County","OK",12,2020,0,35.904367,-94.996796,93415
"Cherokee County","SC",12,2020,0,35.049796,-81.607647,80660
"Cherokee County","TX",12,2020,0,31.843881,-95.156343,78014
"Cherry County","NE",12,2020,0,42.571323,-101.047653,7106
"Cheshire County","NH",12,2020,0,42.92546,-72.248183,29370
"Chester County","PA",12,2020,0,39.974029,-75.749751,514725
"Chester County","SC",12,2020,0,34.689342,-81.161249,59331
"Chester County","TN",12,2020,0,35.420253,-88.611353,39007
"Chesterfield County","SC",12,2020,0,34.637018,-80.159227,63243
"Chesterfield County","VA",12,2020,0,37.378434,-77.585847,346013
"Cheyenne County","CO",12,2020,0,38.835646,-102.601791,2546
"Cheyenne County","NE",12,2020,0,41.214236,-103.011929,20353
"Chickasaw County","IA",12,2020,0,43.059741,-92.31721,30159
"Chickasaw County","MS",12,2020,0,33.933277,-88.947558,41593
"Chicot County","AR",12,2020,0,33.267139,-91.297158,40929
"Childress County","TX",12,2020,0,34.524624,-100.208166,33491
"Chilton County","AL",12,2020,0,32.854051,-86.726607,80899
"Chippewa County","MI",12,2020,0,46.321819,-84.52063,74373
"Chippewa County","MN",12,2020,0,45.028625,-95.564108,35462
"Chippewa County","WI",12,2020,0,45.069092,-91.283505,172126
"Chisago County","MN",12,2020,0,45.505444,-92.903849,117275
"Chittenden County","VT",12,2020,0,44.463329,-73.06941,66209
"Choctaw County","AL",12,2020,0,31.990954,-88.248889,14311
"Choctaw County","MS",12,2020,0,33.345964,-89.251332,13450
"Choctaw County","OK",12,2020,0,34.027699,-95.554079,27313
"Chouteau County","MT",12,2020,0,47.886834,-110.4362,10079
"Chowan County","NC",12,2020,0,36.128979,-76.602752,22658
"Christian County","IL",12,2020,0,39.545524,-89.279593,70985
"Christian County","MO",12,2020,0,36.969739,-93.187614,161001
"Churchill County","NV",12,2020,0,39.53771,-118.264166,36161
"Cibola County","NM",12,2020,0,34.928272,-107.99268,76735
"Cimarron County","OK",12,2020,0,36.74839,-102.517698,2859
"Citrus County","FL",12,2020,0,28.850292,-82.595552,177646
"Clackamas County","OR",12,2020,0,45.160493,-122.195127,261810
"Claiborne County","MS",12,2020,0,31.97281,-90.915424,19771
"Claiborne County","TN",12,2020,0,36.501572,-83.660698,40408
"Clallam County","WA",12,2020,0,48.110903,-123.88986,18780
"Clare County","MI",12,2020,0,43.991137,-84.838325,32299
"Clarendon County","SC",12,2020,0,33.664682,-80.217889,48933
"Clarion County","PA",12,2020,0,41.198159,-79.420369,49982
"Clark County","AR",12,2020,0,34.053316,-93.176208,34563
"Clark County","ID",12,2020,0,44.290218,-112.354613,1616
"Clark County","IL",12,2020,0,39.332334,-87.791683,31284
"Clark County","IN",12,2020,0,38.476217,-85.711122,218424
"Clark County","MO",12,2020,0,40.407275,-91.729472,10535
"Clark County","NV",12,2020,0,36.21413,-115.014398,4515743
"Clark County","OH",12,2020,0,39.917032,-83.783676,234434
"Clark County","SD",12,2020,0,44.855211,-97.724912,9026
"Clark County","WA",12,2020,0,45.77173,-122.485953,351492
"Clark County","WI",12,2020,0,44.739346,-90.609953,86250
"Clarke County","AL",12,2020,0,31.685521,-87.818624,62564
"Clarke County","GA",12,2020,0,33.952185,-83.367152,280787
"Clarke County","IA",12,2020,0,41.029726,-93.785259,17951
"Clarke County","MS",12,2020,0,32.045374,-88.687976,33162
"Clarke County","VA",12,2020,0,39.115307,-77.990748,8975
"Clatsop County","OR",12,2020,0,46.024509,-123.705037,14439
"Clay County","AL",12,2020,0,33.2704,-85.863525,31941
"Clay County","AR",12,2020,0,36.367302,-90.418704,35593
"Clay County","FL",12,2020,0,29.986584,-81.865036,296231
"Clay County","GA",12,2020,0,31.619831,-84.992583,5018
"Clay County","IA",12,2020,0,43.081224,-95.149875,43887
"Clay County","IL",12,2020,0,38.746819,-88.482325,33688
"Clay County","IN",12,2020,0,39.393928,-87.115858,50863
"Clay County","MN",12,2020,0,46.898377,-96.494901,179595
"Clay County","MO",12,2020,0,39.315551,-94.421502,189713
"Clay County","MS",12,2020,0,33.65967,-88.782468,34976
"Clay County","NC",12,2020,0,35.052997,-83.752264,10003
"Clay County","NE",12,2020,0,40.523669,-98.050858,15102
"Clay County","SD",12,2020,0,42.91615,-96.980468,47098
"Clay County","TN",12,2020,0,36.545749,-85.545717,21978
"Clay County","TX",12,2020,0,33.785904,-98.212917,16443
"Clay County","WV",12,2020,0,38.459826,-81.081866,6256
"Clayton County","GA",12,2020,0,33.551603,-84.412868,385504
"Clayton County","IA",12,2020,0,42.840985,-91.323576,39345
"Clear Creek County","CO",12,2020,0,39.689403,-105.670783,7376
"Clearfield County","PA",12,2020,0,41.006862,-78.477724,91739
"Clearwater County","ID",12,2020,0,46.67257,-115.6535,22682
"Clearwater County","MN",12,2020,0,47.575873,-95.371117,18935
"Cleburne County","AL",12,2020,0,33.671964,-85.516126,28176
"Cleburne County","AR",12,2020,0,35.566315,-92.05995,29910
"Clermont County","OH",12,2020,0,39.052054,-84.149485,294255
"Cleveland County","AR",12,2020,0,33.893201,-92.188714,14900
"Cleveland County","NC",12,2020,0,35.33463,-81.557114,169847
"Cleveland County","OK",12,2020,0,35.206376,-97.323088,500990
"Clinch County","GA",12,2020,0,30.917653,-82.702614,17681
"Clinton County","IA",12,2020,0,41.898073,-90.534243,118006
"Clinton County","IL",12,2020,0,38.606295,-89.426228,123611
"Clinton County","IN",12,2020,0,40.305944,-86.477567,82781
"Clinton County","MI",12,2020,0,42.950455,-84.591695,106463
"Clinton County","MO",12,2020,0,39.608723,-94.395803,34015
"Clinton County","NY",12,2020,0,44.752712,-73.705643,22638
"Clinton County","OH",12,2020,0,39.416681,-83.804583,56748
"Clinton County","PA",12,2020,0,41.239508,-77.629009,42635
"Coahoma County","MS",12,2020,0,34.230316,-90.60401,54611
"Coal County","OK",12,2020,0,34.582861,-96.288039,12061
"Cobb County","GA",12,2020,0,33.939929,-84.574121,1143095
"Cochise County","AZ",12,2020,0,31.840129,-109.775163,174811
"Cochran County","TX",12,2020,0,33.60844,-102.830449,5658
"Cocke County","TN",12,2020,0,35.916198,-83.119224,69113
"Coconino County","AZ",12,2020,0,35.829692,-111.773728,292470
"Codington County","SD",12,2020,0,44.966285,-97.198837,97529
"Coffee County","AL",12,2020,0,31.402258,-85.989602,94017
"Coffee County","GA",12,2020,0,31.549245,-82.84494,110281
"Coffee County","TN",12,2020,0,35.488765,-86.078202,123066
"Coke County","TX",12,2020,0,31.87711,-100.635231,9558
"Colbert County","AL",12,2020,0,34.703112,-87.801457,122851
"Cole County","MO",12,2020,0,38.503233,-92.280027,217805
"Coleman County","TX",12,2020,0,31.914205,-99.346622,8835
"Coles County","IL",12,2020,0,39.51368,-88.220782,119507
"Colfax County","NE",12,2020,0,41.57496,-97.088945,43020
"Colfax County","NM",12,2020,0,36.612964,-104.64011,15425
"Colleton County","SC",12,2020,0,32.835018,-80.655244,52245
"Collier County","FL",12,2020,5076,26.118786,-81.400955,628493
"Collin County","TX",12,2020,0,33.194494,-96.579428,1153833
"Collingsworth County","TX",12,2020,0,34.963358,-100.272135,4902
"Colorado County","TX",12,2020,0,29.596296,-96.508935,26702
"Colquitt County","GA",12,2020,0,31.189707,-83.769773,89022
"Columbia County","AR",12,2020,0,33.223038,-93.232843,41906
"Columbia County","FL",12,2020,0,30.221651,-82.623371,164999
"Columbia County","GA",12,2020,0,33.552075,-82.249608,252061
"Columbia County","NY",12,2020,0,42.247696,-73.626718,39925
"Columbia County","OR",12,2020,0,45.941932,-123.081079,21459
"Columbia County","PA",12,2020,0,41.045517,-76.40426,64463
"Columbia County","WA",12,2020,0,46.29285,-117.911634,2045
"Columbia County","WI",12,2020,0,43.471882,-89.330472,128697
"Columbiana County","OH",12,2020,0,40.770073,-80.778455,160210
"Columbus County","NC",12,2020,0,34.261602,-78.639308,97367
"Colusa County","CA",12,2020,0,39.177739,-122.237563,31997
"Comal County","TX",12,2020,0,29.812377,-98.258129,170254
"Comanche County","OK",12,2020,0,34.66263,-98.476612,184678
"Comanche County","TX",12,2020,0,31.951645,-98.549617,24378
"Concho County","TX",12,2020,0,31.318883,-99.863649,5382
"Conecuh County","AL",12,2020,0,31.430926,-86.988722,24333
"Conejos County","CO",12,2020,0,37.213406,-106.176447,8041
"Contra Costa County","CA",12,2020,0,37.919479,-121.951543,1003476
"Converse County","WY",12,2020,0,42.984623,-105.524752,22557
"Conway County","AR",12,2020,0,35.265702,-92.689248,30775
"Cook County","GA",12,2020,0,31.152516,-83.429445,33013
"Cook County","IL",12,2020,349714,41.894294,-87.645455,11075658
"Cook County","MN",12,2020,0,47.758556,-90.344319,2960
"Cooke County","TX",12,2020,0,33.639196,-97.210343,52682
"Cooper County","MO",12,2020,0,38.847093,-92.810069,41893
"Coos County","NH",12,2020,0,44.652548,-71.289431,14096
"Coos County","OR",12,2020,0,43.18591,-124.094133,18806
"Coosa County","AL",12,2020,0,32.931445,-86.243482,13637
"Copiah County","MS",12,2020,0,31.866915,-90.448758,60870
"Corson County","SD",12,2020,0,45.685671,-101.179665,13375
"Cortland County","NY",12,2020,0,42.594039,-76.07624,48410
"Coryell County","TX",12,2020,0,31.391177,-97.798022,91699
"Coshocton County","OH",12,2020,0,40.29671,-81.930109,42156
"Costilla County","CO",12,2020,0,37.277547,-105.42894,3960
"Cottle County","TX",12,2020,0,34.091906,-100.276442,3461
"Cotton County","OK",12,2020,0,34.290676,-98.373438,10878
"Cottonwood County","MN",12,2020,0,44.010639,-95.183152,34783
"Covington County","AL",12,2020,0,31.243987,-86.448721,80406
"Covington County","MS",12,2020,0,31.633331,-89.548897,49478
"Coweta County","GA",12,2020,0,33.352897,-84.762138,211645
"Cowlitz County","WA",12,2020,0,46.196785,-122.67846,59995
"Craig County","OK",12,2020,0,36.76389,-95.201553,37929
"Craig County","VA",12,2020,0,37.473603,-80.231051,3675
"Craighead County","AR",12,2020,0,35.827729,-90.631421,269504
"Crane County","TX",12,2020,0,31.422796,-102.487774,12749
"Craven County","NC",12,2020,0,35.116829,-77.08132,128749
"Crawford County","AR",12,2020,0,35.583011,-94.236219,117922
"Crawford County","GA",12,2020,0,32.709428,-83.979187,10177
"Crawford County","IA",12,2020,0,42.043119,-95.38909,60858
"Crawford County","IL",12,2020,0,39.002787,-87.760619,42915
"Crawford County","IN",12,2020,0,38.289433,-86.440871,15022
"Crawford County","MI",12,2020,0,44.680175,-84.611343,13163
"Crawford County","MO",12,2020,0,37.966559,-91.313936,44923
"Crawford County","OH",12,2020,0,40.848524,-82.924783,64945
"Crawford County","PA",12,2020,0,41.687876,-80.107795,113975
"Crawford County","WI",12,2020,0,43.242768,-90.935185,46662
"Creek County","OK",12,2020,0,35.907398,-96.380177,105092
"Crenshaw County","AL",12,2020,0,31.730311,-86.320038,25335
"Crisp County","GA",12,2020,0,31.920268,-83.75653,35909
"Crittenden County","AR",12,2020,0,35.197559,-90.30512,118583
"Crockett County","TN",12,2020,0,35.818795,-89.132494,43308
"Crockett County","TX",12,2020,0,30.717532,-101.404211,13327
"Crook County","OR",12,2020,0,44.163054,-120.371585,11048
"Crook County","WY",12,2020,0,44.589266,-104.567298,11033
"Crosby County","TX",12,2020,0,33.609144,-101.29871,8394
"Cross County","AR",12,2020,0,35.285692,-90.763984,35176
"Crow Wing County","MN",12,2020,0,46.491653,-94.070718,131260
"Crowley County","CO",12,2020,0,38.30618,-103.772736,45851
"Culberson County","TX",12,2020,0,31.445908,-104.526945,8289
"Cullman County","AL",12,2020,0,34.131923,-86.869267,183276
"Culpeper County","VA",12,2020,0,38.48593,-77.956476,80690
"Cumberland County","IL",12,2020,0,39.273121,-88.240619,25216
"Cumberland County","NC",12,2020,0,35.050192,-78.828719,362401
"Cumberland County","NJ",12,2020,0,39.328434,-75.121628,200944
"Cumberland County","PA",12,2020,0,40.164805,-77.263442,250529
"Cumberland County","TN",12,2020,0,35.952398,-84.994761,108421
"Cumberland County","VA",12,2020,0,37.520189,-78.252836,5550
"Cuming County","NE",12,2020,0,41.915865,-96.788517,21973
"Currituck County","NC",12,2020,0,36.372174,-75.941224,15585
"Curry County","NM",12,2020,0,34.572984,-103.346055,113599
"Curry County","OR",12,2020,0,42.466439,-124.210929,6741
"Custer County","CO",12,2020,0,38.101996,-105.373512,3814
"Custer County","ID",12,2020,0,44.273351,-114.252267,5657
"Custer County","MT",12,2020,0,46.261414,-105.550352,27241
"Custer County","NE",12,2020,0,41.393893,-99.726866,17947
"Custer County","OK",12,2020,0,35.645601,-98.997386,78592
"Custer County","SD",12,2020,0,43.684943,-103.46225,19551
"Cuyahoga County","OH",12,2020,0,41.555037,-81.604957,1782394
"Dade County","GA",12,2020,0,34.852424,-85.506201,20831
"Dade County","MO",12,2020,0,37.43235,-93.854878,15620
"Daggett County","UT",12,2020,0,40.890099,-109.505785,384
"Dakota County","MN",12,2020,0,44.670893,-93.062481,847351
"Dakota County","NE",12,2020,0,42.391624,-96.561327,106956
"Dale County","AL",12,2020,0,31.430654,-85.609476,88511
"Dallam County","TX",12,2020,0,36.28637,-102.59402,14387
"Dallas County","AL",12,2020,0,32.333526,-87.11436,78701
"Dallas County","AR",12,2020,0,33.967823,-92.653999,12447
"Dallas County","IA",12,2020,0,41.68532,-94.040706,225159
"Dallas County","MO",12,2020,0,37.683583,-93.033815,20240
"Dallas County","TX",12,2020,0,32.766987,-96.778424,5127468
"Dane County","WI",12,2020,0,43.067468,-89.417852,986541
"Daniels County","MT",12,2020,0,48.794429,-105.541739,4153
"Dare County","NC",12,2020,0,35.606269,-75.767536,25517
"Darke County","OH",12,2020,0,40.131467,-84.621191,109664
"Darlington County","SC",12,2020,0,34.332185,-79.962115,116894
"Dauphin County","PA",12,2020,0,40.412565,-76.792634,345639
"Davidson County","NC",12,2020,0,35.795131,-80.207107,216438
"Davidson County","TN",12,2020,26061,36.169129,-86.78479,1794013
"Davie County","NC",12,2020,0,35.929355,-80.542552,51958
"Daviess County","IN",12,2020,0,38.69609,-87.076943,62948
"Daviess County","MO",12,2020,0,39.962839,-93.970053,12779
"Davis County","IA",12,2020,0,40.748089,-92.410345,17638
"Davis County","UT",12,2020,0,41.037559,-112.201943,648943
"Davison County","SD",12,2020,0,43.680439,-98.155868,80315
"Dawes County","NE",12,2020,0,42.713038,-103.135436,15793
"Dawson County","GA",12,2020,0,34.442608,-84.173261,45205
"Dawson County","MT",12,2020,0,47.26613,-104.898271,25816
"Dawson County","NE",12,2020,0,40.86784,-99.815583,70410
"Dawson County","TX",12,2020,0,32.742528,-101.948771,40969
"Day County","SD",12,2020,0,45.355161,-97.58143,14658
"De Baca County","NM",12,2020,0,34.359273,-104.368696,2294
"De Witt County","IL",12,2020,0,40.181499,-88.901853,24151
"Deaf Smith County","TX",12,2020,0,34.940766,-102.607564,70002
"Dearborn County","IN",12,2020,0,39.140897,-84.975868,98897
"Decatur County","GA",12,2020,0,30.880643,-84.58389,55794
"Decatur County","IA",12,2020,0,40.736379,-93.78458,11841
"Decatur County","IN",12,2020,0,39.30598,-85.499831,57284
"Decatur County","TN",12,2020,0,35.603136,-88.110292,35351
"Deer Lodge County","MT",12,2020,0,46.094672,-113.141624,24867
"Defiance County","OH",12,2020,0,41.321679,-84.486433,69013
"DeKalb County","AL",12,2020,0,34.460915,-85.804021,186979
"DeKalb County","GA",12,2020,0,33.770661,-84.226343,1020561
"DeKalb County","IL",12,2020,0,41.894612,-88.768991,187863
"DeKalb County","IN",12,2020,0,41.39676,-85.002697,79700
"DeKalb County","MO",12,2020,0,39.894665,-94.40719,21551
"DeKalb County","TN",12,2020,0,35.982219,-85.833596,52017
"Del Norte County","CA",12,2020,0,41.749903,-123.980998,17629
"Delaware County","IA",12,2020,0,42.472937,-91.366767,48177
"Delaware County","IN",12,2020,0,40.227543,-85.399262,205565
"Delaware County","NY",12,2020,0,42.193986,-74.966728,16600
"Delaware County","OH",12,2020,0,40.278941,-83.007462,281039
"Delaware County","OK",12,2020,0,36.393437,-94.808189,75442
"Delaware County","PA",12,2020,0,39.916685,-75.398818,778838
"Delta County","CO",12,2020,0,38.861595,-107.864892,35588
"Delta County","MI",12,2020,0,45.805229,-86.901938,85590
"Delta County","TX",12,2020,0,33.385933,-95.67335,3342
"Dent County","MO",12,2020,0,37.603072,-91.489717,19302
"Denton County","TX",12,2020,0,33.205132,-97.12114,987422
"Denver County","CO",12,2020,0,39.76185,-104.881105,1341669
"Des Moines County","IA",12,2020,0,40.915339,-91.186925,101592
"Deschutes County","OR",12,2020,0,43.915118,-121.225575,102490
"Desha County","AR",12,2020,0,33.828752,-91.244103,24222
"DeSoto County","FL",12,2020,0,27.190581,-81.806253,82495
"DeSoto County","MS",12,2020,0,34.874922,-89.991211,386319
"Deuel County","NE",12,2020,0,41.111903,-102.332609,1860
"Deuel County","SD",12,2020,0,44.75629,-96.690239,11638
"Dewey County","OK",12,2020,0,35.97796,-99.014385,10640
"Dewey County","SD",12,2020,0,45.148049,-100.837953,36132
"DeWitt County","TX",12,2020,0,29.082346,-97.361654,41858
"Dickens County","TX",12,2020,0,33.615363,-100.787617,3060
"Dickenson County","VA",12,2020,0,37.136701,-82.34922,15069
"Dickey County","ND",12,2020,0,46.107756,-98.496518,19081
"Dickinson County","IA",12,2020,0,43.389611,-95.196057,49152
"Dickinson County","MI",12,2020,0,46.012833,-87.866139,62602
"Dickson County","TN",12,2020,0,36.145533,-87.364155,118367
"Dillon County","SC",12,2020,0,34.390209,-79.375294,60145
"Dimmit County","TX",12,2020,0,28.423587,-99.765871,15643
"Dinwiddie County","VA",12,2020,0,37.073498,-77.635492,24078
"Divide County","ND",12,2020,0,48.814754,-103.509326,4107
"Dixie County","FL",12,2020,0,29.552675,-83.236232,31835
"Dixon County","NE",12,2020,0,42.485086,-96.855784,14037
"Doddridge County","WV",12,2020,0,39.264307,-80.711498,5675
"Dodge County","GA",12,2020,0,32.164369,-83.167866,38272
"Dodge County","MN",12,2020,0,44.020706,-92.869353,32917
"Dodge County","NE",12,2020,0,41.577008,-96.645852,105089
"Dodge County","WI",12,2020,0,43.429628,-88.701939,315660
"Dolores County","CO",12,2020,0,37.733823,-108.506219,1288
"Donley County","TX",12,2020,0,34.955036,-100.815846,5927
"Dooly County","GA",12,2020,0,32.151995,-83.807167,18027
"Door County","WI",12,2020,0,45.093417,-87.048683,60827
"Dorchester County","SC",12,2020,0,33.082186,-80.404697,217562
"Dougherty County","GA",12,2020,0,31.532588,-84.20904,131693
"Douglas County","CO",12,2020,0,39.325414,-104.925987,432528
"Douglas County","GA",12,2020,0,33.701242,-84.767314,217513
"Douglas County","IL",12,2020,0,39.766078,-88.222866,50774
"Douglas County","MN",12,2020,0,45.936835,-95.462155,98928
"Douglas County","MO",12,2020,0,36.946517,-92.515892,16464
"Douglas County","NE",12,2020,0,41.297091,-96.154066,1484106
"Douglas County","NV",12,2020,0,38.905129,-119.609019,49411
"Douglas County","OR",12,2020,0,43.286328,-123.154476,37590
"Douglas County","SD",12,2020,0,43.391506,-98.358433,10743
"Douglas County","WA",12,2020,0,47.741763,-119.694622,73785
"Douglas County","WI",12,2020,0,46.463218,-91.892477,92415
"Drew County","AR",12,2020,0,33.587242,-91.722778,36642
"Dubois County","IN",12,2020,0,38.373344,-86.873385,111735
"Dubuque County","IA",12,2020,0,42.463481,-90.878771,311661
"Duchesne County","UT",12,2020,0,40.289393,-110.429584,22047
"Dukes County","MA",12,2020,0,41.38097,-70.701499,12035
"Dundy County","NE",12,2020,0,40.180165,-101.681133,2672
"Dunklin County","MO",12,2020,0,36.153025,-90.062254,59136
"Dunn County","ND",12,2020,0,47.354557,-102.612322,10508
"Dunn County","WI",12,2020,0,44.947751,-91.897645,105405
"DuPage County","IL",12,2020,26311,41.852058,-88.086039,1716415
"Duplin County","NC",12,2020,0,34.934403,-77.933543,117735
"Durham County","NC",12,2020,0,36.033828,-78.878125,410921
"Dutchess County","NY",12,2020,0,41.754825,-73.740014,299192
"Duval County","FL",12,2020,55296,30.335245,-81.648113,1620884
"Duval County","TX",12,2020,0,27.681123,-98.497393,23056
"Dyer County","TN",12,2020,0,36.054196,-89.398306,116587
"Eagle County","CO",12,2020,0,39.626992,-106.695169,90364
"Early County","GA",12,2020,0,31.324191,-84.906723,23210
"Eastland County","TX",12,2020,0,32.324645,-98.83656,19490
"Eaton County","MI",12,2020,0,42.58953,-84.84645,126307
"Eau Claire County","WI",12,2020,0,44.726355,-91.286414,271925
"Echols County","GA",12,2020,0,30.714008,-82.897376,10291
"Ector County","TX",12,2020,0,31.865301,-102.542507,333137
"Eddy County","ND",12,2020,0,47.723436,-98.900474,12018
"Eddy County","NM",12,2020,0,32.457835,-104.306434,117733
"Edgar County","IL",12,2020,0,39.679037,-87.74711,35341
"Edgecombe County","NC",12,2020,0,35.917077,-77.602742,90277
"Edgefield County","SC",12,2020,0,33.776498,-81.968245,42662
"Edmunds County","SD",12,2020,0,45.41168,-99.205362,9609
"Edwards County","IL",12,2020,0,38.417095,-88.047941,9872
"Edwards County","TX",12,2020,0,29.985933,-100.3074,4840
"Effingham County","GA",12,2020,0,32.361688,-81.343355,75285
"Effingham County","IL",12,2020,0,39.047945,-88.592849,106741
"El Dorado County","CA",12,2020,0,38.785612,-120.534225,126802
"El Paso County","CO",12,2020,0,38.827383,-104.527472,1115697
"El Paso County","TX",12,2020,0,31.76648,-106.241423,2898133
"Elbert County","CO",12,2020,0,39.315157,-104.114076,25817
"Elbert County","GA",12,2020,0,34.116415,-82.841892,43820
"Elk County","PA",12,2020,0,41.427332,-78.653937,29943
"Elkhart County","IN",12,2020,0,41.600693,-85.863986,650756
"Elko County","NV",12,2020,0,41.141133,-115.351424,107477
"Ellis County","OK",12,2020,0,36.224258,-99.750139,8441
"Ellis County","TX",12,2020,0,32.346878,-96.79694,314970
"Elmore County","AL",12,2020,0,32.597229,-86.142735,162083
"Elmore County","ID",12,2020,0,43.394698,-115.471205,35738
"Emanuel County","GA",12,2020,0,32.5911,-82.299763,48964
"Emery County","UT",12,2020,0,39.009025,-110.7211,14280
"Emmet County","IA",12,2020,0,43.377984,-94.66937,27802
"Emmet County","MI",12,2020,0,45.590094,-84.986822,35193
"Emmons County","ND",12,2020,0,46.284255,-100.237842,11187
"Erath County","TX",12,2020,0,32.236669,-98.220545,71666
"Erie County","NY",12,2020,0,42.752759,-78.778192,1058327
"Erie County","OH",12,2020,0,41.394143,-82.586835,118358
"Erie County","PA",12,2020,0,42.117952,-80.096386,276004
"Escambia County","AL",12,2020,0,31.122287,-87.16841,72035
"Escambia County","FL",12,2020,0,30.529998,-87.320322,601101
"Esmeralda County","NV",12,2020,0,37.778966,-117.632382,763
"Essex County","MA",12,2020,0,42.642708,-70.864909,1470309
"Essex County","NJ",12,2020,0,40.7874,-74.246292,1307549
"Essex County","NY",12,2020,0,44.109601,-73.778431,12921
"Essex County","VA",12,2020,0,37.936389,-76.933747,9033
"Essex County","VT",12,2020,0,44.724021,-71.732736,2234
"Etowah County","AL",12,2020,0,34.047641,-86.034263,260127
"Eureka County","NV",12,2020,0,39.977788,-116.272208,829
"Evans County","GA",12,2020,0,32.153083,-81.890153,18566
"Fairfax County","VA",12,2020,0,38.82952,-77.273252,1168608
"Fairfield County","OH",12,2020,0,39.747694,-82.626685,253028
"Fairfield County","SC",12,2020,0,34.395669,-81.127001,37289
"Fall River County","SD",12,2020,0,43.221619,-103.512609,12651
"Fallon County","MT",12,2020,0,46.318184,-104.405718,8090
"Falls County","TX",12,2020,0,31.25193,-96.934127,30091
"Fannin County","GA",12,2020,0,34.866543,-84.317331,37405
"Fannin County","TX",12,2020,0,33.591161,-96.104988,44906
"Faribault County","MN",12,2020,0,43.676522,-93.947234,24043
"Faulk County","SD",12,2020,0,45.065476,-99.153564,9303
"Faulkner County","AR",12,2020,0,35.146548,-92.336928,193041
"Fauquier County","VA",12,2020,0,38.744096,-77.8215,60197
"Fayette County","AL",12,2020,0,33.716157,-87.764292,37698
"Fayette County","GA",12,2020,0,33.412717,-84.493941,125321
"Fayette County","IA",12,2020,0,42.864122,-91.840376,37964
"Fayette County","IL",12,2020,0,39.001125,-89.017923,72222
"Fayette County","IN",12,2020,0,39.639655,-85.185032,63486
"Fayette County","OH",12,2020,0,39.555246,-83.461893,44257
"Fayette County","PA",12,2020,0,39.918907,-79.640119,149298
"Fayette County","TN",12,2020,0,35.196993,-89.413803,87091
"Fayette County","TX",12,2020,0,29.877886,-96.921231,31250
"Fayette County","WV",12,2020,0,38.030948,-81.08607,44394
"Fentress County","TN",12,2020,0,36.369892,-84.937764,48489
"Fergus County","MT",12,2020,0,47.221816,-109.232956,24448
"Ferry County","WA",12,2020,0,48.473256,-118.533589,4393
"Fillmore County","MN",12,2020,0,43.679187,-92.093937,29083
"Fillmore County","NE",12,2020,0,40.52504,-97.596705,11919
"Fisher County","TX",12,2020,0,32.740473,-100.40312,6067
"Flagler County","FL",12,2020,0,29.474891,-81.286253,98535
"Flathead County","MT",12,2020,0,48.295422,-114.052059,249265
"Florence County","SC",12,2020,0,34.028535,-79.710233,262092
"Florence County","WI",12,2020,0,45.871828,-88.406988,12344
"Floyd County","GA",12,2020,0,34.26369,-85.213685,206290
"Floyd County","IA",12,2020,0,43.052741,-92.787367,37303
"Floyd County","IN",12,2020,0,38.318081,-85.911847,134437
"Floyd County","TX",12,2020,0,34.07373,-101.303274,12463
"Floyd County","VA",12,2020,0,36.931433,-80.350266,13326
"Fluvanna County","VA",12,2020,0,37.830584,-78.283494,19574
"Foard County","TX",12,2020,0,33.963306,-99.816828,1684
"Fond du Lac County","WI",12,2020,0,43.754722,-88.493284,318738
"Ford County","IL",12,2020,0,40.596539,-88.224588,31912
"Forest County","PA",12,2020,0,41.513304,-79.249705,5931
"Forest County","WI",12,2020,0,45.666881,-88.773326,26151
"Forrest County","MS",12,2020,0,31.18858,-89.259447,142088
"Forsyth County","GA",12,2020,0,34.225143,-84.127408,272717
"Forsyth County","NC",12,2020,0,36.132466,-80.256961,531975
"Fort Bend County","TX",12,2020,0,29.526602,-95.771015,949363
"Foster County","ND",12,2020,0,47.471431,-98.872876,16240
"Fountain County","IN",12,2020,0,40.121237,-87.234872,38938
"Franklin County","AL",12,2020,0,34.441989,-87.842814,90590
"Franklin County","AR",12,2020,0,35.508558,-93.887665,29685
"Franklin County","FL",12,2020,0,29.677794,-84.815213,26500
"Franklin County","GA",12,2020,0,34.375266,-83.227532,46943
"Franklin County","IA",12,2020,0,42.736545,-93.271415,25549
"Franklin County","ID",12,2020,0,42.173609,-111.822965,26111
"Franklin County","IL",12,2020,0,37.991852,-88.926321,85197
"Franklin County","IN",12,2020,0,39.409762,-85.066964,31642
"Franklin County","MA",12,2020,0,42.584504,-72.591792,30951
"Franklin County","MO",12,2020,0,38.413003,-91.072832,178846
"Franklin County","MS",12,2020,0,31.477773,-90.895457,14809
"Franklin County","NC",12,2020,0,36.088241,-78.28309,79345
"Franklin County","NE",12,2020,0,40.183203,-98.96208,5832
"Franklin County","NY",12,2020,0,44.594376,-74.31067,15579
"Franklin County","OH",12,2020,0,39.969875,-83.009086,2195496
"Franklin County","PA",12,2020,0,39.926772,-77.724521,213307
"Franklin County","TN",12,2020,0,35.155926,-86.099203,88791
"Franklin County","TX",12,2020,0,33.175846,-95.219066,10914
"Franklin County","VA",12,2020,0,36.991186,-79.882715,61848
"Franklin County","VT",12,2020,0,44.858964,-72.909402,12748
"Franklin County","WA",12,2020,0,46.537502,-118.903891,243693
"Frederick County","VA",12,2020,0,39.20366,-78.263829,93258
"Freeborn County","MN",12,2020,0,43.674202,-93.350289,55933
"Freestone County","TX",12,2020,0,31.701749,-96.144957,23544
"Fremont County","CO",12,2020,0,38.45517,-105.424958,119572
"Fremont County","IA",12,2020,0,40.74259,-95.599182,13252
"Fremont County","ID",12,2020,0,44.218091,-111.484429,25456
"Fremont County","WY",12,2020,0,43.054831,-108.608935,115957
"Fresno County","CA",12,2020,0,36.761006,-119.655019,1558495
"Frio County","TX",12,2020,0,28.869383,-99.109005,46837
"Frontier County","NE",12,2020,0,40.530947,-100.406683,4082
"Fulton County","AR",12,2020,0,36.381322,-91.819285,21735
"Fulton County","GA",12,2020,0,33.790034,-84.468182,1512931
"Fulton County","IL",12,2020,0,40.46524,-90.202269,60748
"Fulton County","IN",12,2020,0,41.050384,-86.265006,36980
"Fulton County","NY",12,2020,0,43.115609,-74.423678,28164
"Fulton County","OH",12,2020,0,41.597264,-84.124267,67160
"Fulton County","PA",12,2020,0,39.91075,-78.122617,16287
"Furnas County","NE",12,2020,0,40.191865,-99.909663,10189
"Gadsden County","FL",12,2020,0,30.578687,-84.612607,111503
"Gage County","NE",12,2020,0,40.255234,-96.683453,51224
"Gaines County","TX",12,2020,0,32.743942,-102.631561,34630
"Gallatin County","IL",12,2020,0,37.768677,-88.227964,8130
"Gallatin County","MT",12,2020,0,45.518054,-111.163921,265354
"Gallia County","OH",12,2020,0,38.817046,-82.301746,41094
"Galveston County","TX",12,2020,0,29.233453,-94.888456,553837
"Garden County","NE",12,2020,0,41.633364,-102.302985,2658
"Garfield County","CO",12,2020,0,39.599352,-107.90978,97254
"Garfield County","MT",12,2020,0,47.267184,-106.995991,2100
"Garfield County","NE",12,2020,0,41.906868,-98.951231,3687
"Garfield County","OK",12,2020,0,36.378132,-97.788741,146649
"Garfield County","UT",12,2020,0,37.831663,-111.450907,8324
"Garfield County","WA",12,2020,0,46.429318,-117.536705,2195
"Garland County","AR",12,2020,0,34.578852,-93.146932,148537
"Garvin County","OK",12,2020,0,34.70935,-97.312723,59860
"Garza County","TX",12,2020,0,33.183792,-101.301134,6742
"Gasconade County","MO",12,2020,0,38.441183,-91.50578,18226
"Gaston County","NC",12,2020,0,35.293344,-81.177256,398483
"Gates County","NC",12,2020,0,36.442135,-76.702355,9073
"Geauga County","OH",12,2020,0,41.499322,-81.173505,103383
"Gem County","ID",12,2020,0,44.061473,-116.398784,38959
"Genesee County","MI",12,2020,0,43.021077,-83.706372,591593
"Genesee County","NY",12,2020,0,43.00091,-78.192778,56253
"Geneva County","AL",12,2020,0,31.092382,-85.821022,44898
"Gentry County","MO",12,2020,0,40.208127,-94.405321,16397
"George County","MS",12,2020,0,30.855431,-88.642268,47312
"Georgetown County","SC",12,2020,0,33.417531,-79.296333,101943
"Gibson County","IN",12,2020,0,38.317398,-87.580523,81368
"Gibson County","TN",12,2020,859,35.991632,-88.933812,129783
"Gila County","AZ",12,2020,0,33.789618,-110.81187,117228
"Gilchrist County","FL",12,2020,0,29.723456,-82.795801,27570
"Giles County","TN",12,2020,0,35.202723,-87.035319,63539
"Giles County","VA",12,2020,0,37.318072,-80.698321,13714
"Gillespie County","TX",12,2020,0,30.325093,-98.94185,33833
"Gilliam County","OR",12,2020,0,45.382955,-120.276246,898
"Gilmer County","GA",12,2020,0,34.690523,-84.454811,48427
"Gilmer County","WV",12,2020,0,38.915867,-80.849413,8635
"Gilpin County","CO",12,2020,0,39.861156,-105.528878,3341
"Glacier County","MT",12,2020,0,48.705671,-112.990502,38753
"Glades County","FL",12,2020,0,26.95481,-81.19082,22525
"Gladwin County","MI",12,2020,0,43.98975,-84.389816,32553
"Glascock County","GA",12,2020,0,33.227491,-82.606913,3899
"Glasscock County","TX",12,2020,0,31.868006,-101.521494,2099
"Glenn County","CA",12,2020,0,39.602546,-122.4017,37610
"Gloucester County","NJ",12,2020,0,39.722875,-75.145679,366833
"Gloucester County","VA",12,2020,0,37.403541,-76.523505,20920
"Glynn County","GA",12,2020,0,31.21271,-81.49645,147367
"Gogebic County","MI",12,2020,0,46.488054,-89.788314,29260
"Golden Valley County","MT",12,2020,0,46.380624,-109.174586,1048
"Golden Valley County","ND",12,2020,0,46.938924,-103.844612,5751
"Goliad County","TX",12,2020,0,28.6607,-97.430415,7258
"Gonzales County","TX",12,2020,0,29.461912,-97.49192,45480
"Goochland County","VA",12,2020,0,37.718814,-77.917626,16383
"Goodhue County","MN",12,2020,0,44.406178,-92.716,82519
"Gooding County","ID",12,2020,0,42.973185,-114.82142,33533
"Gordon County","GA",12,2020,0,34.509667,-84.873862,129785
"Goshen County","WY",12,2020,0,42.089455,-104.35354,28153
"Gosper County","NE",12,2020,0,40.509095,-99.823206,4251
"Grady County","GA",12,2020,0,30.8759,-84.244965,35513
"Grady County","OK",12,2020,0,35.021058,-97.88689,103641
"Grafton County","NH",12,2020,0,43.926439,-71.842424,26823
"Graham County","AZ",12,2020,0,32.931828,-109.87831,83755
"Graham County","NC",12,2020,0,35.348364,-83.830915,9975
"Grainger County","TN",12,2020,0,36.277509,-83.509546,44353
"Grand County","CO",12,2020,0,40.113065,-106.110837,16961
"Grand County","UT",12,2020,0,38.974326,-109.57345,11597
"Grand Forks County","ND",12,2020,0,47.926003,-97.450851,275086
"Grand Isle County","VT",12,2020,0,44.801787,-73.300759,1643
"Grand Traverse County","MI",12,2020,0,44.718688,-85.553848,81018
"Granite County","MT",12,2020,0,46.395955,-113.427356,4646
"Grant County","AR",12,2020,0,34.285568,-92.422979,25385
"Grant County","IN",12,2020,0,40.515758,-85.654946,141397
"Grant County","MN",12,2020,0,45.930743,-96.010699,10707
"Grant County","ND",12,2020,0,46.357827,-101.639049,5147
"Grant County","NE",12,2020,0,41.913957,-101.755965,680
"Grant County","NM",12,2020,0,32.732087,-108.381504,21540
"Grant County","OK",12,2020,0,36.788254,-97.788151,9202
"Grant County","OR",12,2020,0,44.496326,-119.014057,4895
"Grant County","SD",12,2020,0,45.172637,-96.772261,23704
"Grant County","WA",12,2020,0,47.213633,-119.467788,187126
"Grant County","WI",12,2020,0,42.870028,-90.694229,131177
"Grant County","WV",12,2020,0,39.105988,-79.195064,18647
"Granville County","NC",12,2020,0,36.299884,-78.657634,95678
"Gratiot County","MI",12,2020,0,43.292326,-84.60469,114275
"Gray County","TX",12,2020,0,35.402542,-100.812374,47789
"Grays Harbor County","WA",12,2020,0,47.113732,-123.826735,49101
"Grayson County","TX",12,2020,0,33.624524,-96.675693,170953
"Grayson County","VA",12,2020,0,36.652229,-81.215324,20555
"Greeley County","NE",12,2020,0,41.567571,-98.530565,5020
"Green County","WI",12,2020,0,42.675522,-89.605074,64965
"Green Lake County","WI",12,2020,0,43.780247,-88.97038,49923
"Greenbrier County","WV",12,2020,0,37.924418,-80.45059,30523
"Greene County","AL",12,2020,0,32.844497,-87.9642,17183
"Greene County","AR",12,2020,0,36.120607,-90.566346,118983
"Greene County","GA",12,2020,0,33.576704,-83.166625,27923
"Greene County","IA",12,2020,0,42.042513,-94.388727,18468
"Greene County","IL",12,2020,0,39.355439,-90.387682,31445
"Greene County","IN",12,2020,0,39.047147,-87.004771,49130
"Greene County","MO",12,2020,0,37.258196,-93.340641,568882
"Greene County","MS",12,2020,0,31.212845,-88.634811,26237
"Greene County","NC",12,2020,0,35.481959,-77.681688,42653
"Greene County","NY",12,2020,0,42.279821,-74.142025,29355
"Greene County","OH",12,2020,0,39.687479,-83.894894,247759
"Greene County","PA",12,2020,0,39.847707,-80.225655,37530
"Greene County","TN",12,2020,0,36.179487,-82.847523,136358
"Greene County","VA",12,2020,0,38.297981,-78.470163,13839
"Greenlee County","AZ",12,2020,0,33.238872,-109.242323,10307
"Greensville County","VA",12,2020,0,36.680336,-77.560277,30028
"Greenville County","SC",12,2020,0,34.892645,-82.372077,941626
"Greenwood County","SC",12,2020,0,34.155796,-82.127876,113070
"Greer County","OK",12,2020,0,34.933853,-99.552968,10215
"Gregg County","TX",12,2020,0,32.486401,-94.816277,187525
"Gregory County","SD",12,2020,0,43.175142,-99.206591,14436
"Grenada County","MS",12,2020,0,33.770031,-89.80274,53490
"Griggs County","ND",12,2020,0,47.456334,-98.232286,8772
"Grimes County","TX",12,2020,0,30.543231,-95.988082,50145
"Grundy County","IA",12,2020,0,42.403339,-92.790244,30167
"Grundy County","IL",12,2020,0,41.29241,-88.401054,106897
"Grundy County","MO",12,2020,0,40.112541,-93.565054,18659
"Grundy County","TN",12,2020,0,35.393352,-85.710374,30862
"Guadalupe County","NM",12,2020,0,34.869782,-104.784968,12496
"Guadalupe County","TX",12,2020,0,29.582671,-97.948995,180763
"Guernsey County","OH",12,2020,0,40.056665,-81.497875,49382
"Guilford County","NC",12,2020,0,36.079065,-79.788665,644387
"Gulf County","FL",12,2020,0,29.859238,-85.272013,36562
"Gunnison County","CO",12,2020,0,38.670499,-107.05688,17896
"Guthrie County","IA",12,2020,0,41.683573,-94.501272,26783
"Gwinnett County","GA",12,2020,0,33.958756,-84.025735,1501830
"Haakon County","SD",12,2020,0,44.288097,-101.540856,6210
"Habersham County","GA",12,2020,0,34.634392,-83.525875,94297
"Hale County","AL",12,2020,0,32.752796,-87.623061,37264
"Hale County","TX",12,2020,0,34.068436,-101.822888,146628
"Halifax County","NC",12,2020,0,36.251438,-77.644842,74977
"Halifax County","VA",12,2020,0,36.766461,-78.939614,30040
"Hall County","GA",12,2020,0,34.317569,-83.8185,483190
"Hall County","NE",12,2020,0,40.866027,-98.502664,167974
"Hall County","TX",12,2020,0,34.453189,-100.576343,5459
"Hamblen County","TN",12,2020,0,36.218397,-83.266071,146766
"Hamilton County","FL",12,2020,0,30.498438,-82.951116,34200
"Hamilton County","IA",12,2020,0,42.390789,-93.70913,41380
"Hamilton County","IL",12,2020,0,38.085227,-88.539009,15419
"Hamilton County","IN",12,2020,6403,40.053513,-86.021709,610560
"Hamilton County","NE",12,2020,0,40.872817,-98.022329,20424
"Hamilton County","NY",12,2020,0,43.657879,-74.502456,2358
"Hamilton County","OH",12,2020,0,39.196927,-84.544187,1355288
"Hamilton County","TN",12,2020,0,35.163472,-85.201843,740977
"Hamilton County","TX",12,2020,0,31.707342,-98.111756,11849
"Hamlin County","SD",12,2020,0,44.680619,-97.178598,17290
"Hampden County","MA",12,2020,0,42.136198,-72.635648,664242
"Hampshire County","MA",12,2020,0,42.339459,-72.663694,94578
"Hampshire County","WV",12,2020,0,39.312139,-78.611989,21109
"Hampton County","SC",12,2020,0,32.778334,-81.143822,29933
"Hancock County","GA",12,2020,0,33.26922,-83.000465,17700
"Hancock County","IA",12,2020,0,43.075411,-93.743697,32530
"Hancock County","IL",12,2020,0,40.401318,-91.168801,35909
"Hancock County","IN",12,2020,0,39.822529,-85.77315,130035
"Hancock County","MS",12,2020,0,30.391641,-89.482791,49699
"Hancock County","OH",12,2020,0,41.000217,-83.665947,116124
"Hancock County","TN",12,2020,0,36.521353,-83.227493,8164
"Hancock County","WV",12,2020,0,40.516958,-80.570164,41849
"Hand County","SD",12,2020,0,44.546713,-99.004575,9400
"Hanover County","VA",12,2020,0,37.760215,-77.491317,96301
"Hansford County","TX",12,2020,0,36.272847,-101.35693,13635
"Hanson County","SD",12,2020,0,43.680612,-97.796845,9118
"Haralson County","GA",12,2020,0,33.795165,-85.220063,49780
"Hardee County","FL",12,2020,0,27.492846,-81.82158,59591
"Hardeman County","TN",12,2020,0,35.218785,-88.988697,79442
"Hardeman County","TX",12,2020,0,34.289904,-99.745697,5844
"Hardin County","IA",12,2020,0,42.390208,-93.241669,41606
"Hardin County","IL",12,2020,0,37.517852,-88.266148,5738
"Hardin County","OH",12,2020,0,40.660415,-83.664077,45938
"Hardin County","TN",12,2020,0,35.201893,-88.185696,68869
"Hardin County","TX",12,2020,0,30.329648,-94.393178,79606
"Harding County","NM",12,2020,0,35.859352,-103.853424,220
"Harding County","SD",12,2020,0,45.596611,-103.473871,2651
"Hardy County","WV",12,2020,0,39.011361,-78.841729,17072
"Harlan County","NE",12,2020,0,40.178766,-99.403418,5122
"Harmon County","OK",12,2020,0,34.745971,-99.844194,5405
"Harnett County","NC",12,2020,0,35.368635,-78.87161,155452
"Harney County","OR",12,2020,0,43.064449,-118.987169,3717
"Harper County","OK",12,2020,0,36.80035,-99.662805,9532
"Harris County","GA",12,2020,0,32.731549,-84.912432,37692
"Harris County","TX",12,2020,0,29.857273,-95.393037,6611041
"Harrison County","IA",12,2020,0,41.688584,-95.827149,39625
"Harrison County","IN",12,2020,0,38.186454,-86.103766,66319
"Harrison County","MO",12,2020,0,40.34562,-93.992582,16485
"Harrison County","MS",12,2020,0,30.416536,-89.083376,278852
"Harrison County","OH",12,2020,0,40.292318,-81.091565,15117
"Harrison County","TX",12,2020,0,32.547991,-94.374434,65840
"Harrison County","WV",12,2020,0,39.279182,-80.386498,67337
"Hart County","GA",12,2020,0,34.348733,-82.96329,36961
"Hartley County","TX",12,2020,0,35.840244,-102.610047,8490
"Haskell County","OK",12,2020,0,35.232431,-95.109642,22870
"Haskell County","TX",12,2020,0,33.175964,-99.730774,6759
"Hawaii County","HI",12,2020,0,19.597764,-155.502443,54804
"Hawkins County","TN",12,2020,0,36.452089,-82.931485,88525
"Hayes County","NE",12,2020,0,40.537234,-101.047963,1525
"Hays County","TX",12,2020,0,30.061225,-98.029267,298841
"Haywood County","NC",12,2020,0,35.558882,-82.981307,51828
"Haywood County","TN",12,2020,0,35.586678,-89.282691,59788
"Heard County","GA",12,2020,0,33.291347,-85.137886,15553
"Hemphill County","TX",12,2020,0,35.815956,-100.27921,9238
"Hempstead County","AR",12,2020,0,33.735953,-93.664355,32722
"Henderson County","IL",12,2020,0,40.814471,-90.941246,11087
"Henderson County","NC",12,2020,0,35.336415,-82.479741,130615
"Henderson County","TN",12,2020,0,35.653994,-88.387674,75369
"Henderson County","TX",12,2020,0,32.211633,-95.853418,96661
"Hendricks County","IN",12,2020,0,39.768963,-86.509908,290537
"Hendry County","FL",12,2020,0,26.539967,-81.152114,89698
"Hennepin County","MN",12,2020,0,45.006121,-93.475228,2462173
"Henrico County","VA",12,2020,0,37.43752,-77.300333,319933
"Henry County","AL",12,2020,0,31.516978,-85.239971,32229
"Henry County","GA",12,2020,0,33.452947,-84.154021,341605
"Henry County","IA",12,2020,0,40.984802,-91.547259,70174
"Henry County","IL",12,2020,0,41.350021,-90.130838,102292
"Henry County","IN",12,2020,0,39.929591,-85.397363,108490
"Henry County","MO",12,2020,0,38.386491,-93.792628,39949
"Henry County","OH",12,2020,0,41.331584,-84.0689,45749
"Henry County","TN",12,2020,0,36.325295,-88.300288,61532
"Henry County","VA",12,2020,0,36.620612,-79.980662,69916
"Herkimer County","NY",12,2020,0,43.571009,-74.841097,41122
"Hernando County","FL",12,2020,1526,28.555995,-82.525969,191749
"Hertford County","NC",12,2020,0,36.363517,-76.981616,36288
"Hettinger County","ND",12,2020,0,46.435704,-102.454238,8068
"Hickman County","TN",12,2020,0,35.802327,-87.467116,48416
"Hickory County","MO",12,2020,0,37.93691,-93.322988,12482
"Hidalgo County","NM",12,2020,0,31.898052,-108.751929,6575
"Hidalgo County","TX",12,2020,0,26.396384,-98.18099,1468007
"Highland County","OH",12,2020,0,39.184422,-83.601359,52612
"Highland County","VA",12,2020,0,38.366243,-79.564472,1171
"Highlands County","FL",12,2020,0,27.34108,-81.342353,136489
"Hill County","MT",12,2020,0,48.631959,-110.106321,46784
"Hill County","TX",12,2020,0,31.982681,-97.130668,54187
"Hillsborough County","FL",12,2020,28442,27.893154,-82.379991,2092096
"Hillsborough County","NH",12,2020,0,42.911532,-71.723055,424000
"Hillsdale County","MI",12,2020,0,41.927461,-84.637479,68590
"Hinds County","MS",12,2020,0,32.267788,-90.466017,377640
"Hinsdale County","CO",12,2020,0,37.811519,-107.383974,350
"Hitchcock County","NE",12,2020,0,40.176896,-101.044217,4629
"Hocking County","OH",12,2020,0,39.490342,-82.483447,34408
"Hockley County","TX",12,2020,0,33.605932,-102.343398,51563
"Hoke County","NC",12,2020,0,35.017233,-79.241964,73715
"Holmes County","FL",12,2020,0,30.862007,-85.815939,43424
"Holmes County","MS",12,2020,0,33.125942,-90.091197,45714
"Holmes County","OH",12,2020,0,40.565597,-81.930001,54421
"Holt County","MO",12,2020,0,40.095724,-95.219072,9482
"Holt County","NE",12,2020,0,42.459287,-98.784766,18545
"Honolulu County","HI",12,2020,0,21.461365,-158.201974,518685
"Hood County","TX",12,2020,0,32.430149,-97.831677,88190
"Hood River County","OR",12,2020,0,45.511775,-121.655976,19348
"Hooker County","NE",12,2020,0,41.920317,-101.117324,1443
"Hopkins County","TX",12,2020,0,33.148967,-95.565434,52807
"Horry County","SC",12,2020,0,33.909269,-78.976675,540957
"Hot Spring County","AR",12,2020,0,34.315177,-92.944147,100911
"Hot Springs County","WY",12,2020,0,43.720209,-108.435076,6094
"Houghton County","MI",12,2020,0,46.998427,-88.651903,57100
"Houston County","AL",12,2020,0,31.158183,-85.296411,194780
"Houston County","GA",12,2020,0,32.458147,-83.662309,193856
"Houston County","MN",12,2020,0,43.66699,-91.501556,31114
"Houston County","TN",12,2020,0,36.285782,-87.705598,21634
"Houston County","TX",12,2020,0,31.323036,-95.4216,26951
"Howard County","AR",12,2020,0,34.083064,-93.990931,30009
"Howard County","IA",12,2020,0,43.365312,-92.321908,19874
"Howard County","IN",12,2020,0,40.483537,-86.114118,169774
"Howard County","MO",12,2020,0,39.143365,-92.695926,17720
"Howard County","NE",12,2020,0,41.216851,-98.513342,13042
"Howard County","TX",12,2020,0,32.30343,-101.438721,100634
"Howell County","MO",12,2020,0,36.774369,-91.887368,61600
"Hubbard County","MN",12,2020,0,47.095551,-94.91329,40465
"Hudson County","NJ",12,2020,0,40.731375,-74.078601,1188208
"Hudspeth County","TX",12,2020,0,31.450868,-105.377549,10906
"Huerfano County","CO",12,2020,0,37.687815,-104.959928,7400
"Hughes County","OK",12,2020,0,35.052934,-96.251183,21762
"Hughes County","SD",12,2020,0,44.384452,-99.975684,57828
"Humboldt County","CA",12,2020,0,40.706655,-123.926176,41318
"Humboldt County","IA",12,2020,0,42.782221,-94.202775,27414
"Humboldt County","NV",12,2020,0,41.407914,-118.127591,19298
"Humphreys County","MS",12,2020,0,33.130996,-90.523421,19842
"Humphreys County","TN",12,2020,0,36.040822,-87.790453,29920
"Hunt County","TX",12,2020,0,33.123308,-96.08423,100145
"Hunterdon County","NJ",12,2020,0,40.565283,-74.911969,99295
"Huntingdon County","PA",12,2020,0,40.422311,-77.968595,73862
"Huntington County","IN",12,2020,0,40.826394,-85.478597,61868
"Huron County","MI",12,2020,0,43.907616,-82.857045,39571
"Huron County","OH",12,2020,0,41.14508,-82.594641,82546
"Hutchinson County","SD",12,2020,0,43.33671,-97.749383,20268
"Hutchinson County","TX",12,2020,0,35.837047,-101.362746,30529
"Hyde County","NC",12,2020,0,35.408157,-76.153687,7120
"Hyde County","SD",12,2020,0,44.537174,-99.472736,3988
"Ida County","IA",12,2020,0,42.39186,-95.507421,19604
"Idaho County","ID",12,2020,0,45.849644,-115.467337,28852
"Imperial County","CA",12,2020,0,33.040814,-115.3554,602746
"Independence County","AR",12,2020,0,35.737499,-91.559942,75177
"Indian River County","FL",12,2020,0,27.700528,-80.574789,179474
"Indiana County","PA",12,2020,0,40.651432,-79.087545,105369
"Ingham County","MI",12,2020,0,42.603534,-84.373811,347882
"Inyo County","CA",12,2020,0,36.56216,-117.404209,13239
"Ionia County","MI",12,2020,0,42.94465,-85.073766,136824
"Iosco County","MI",12,2020,0,44.386912,-83.380141,30672
"Iowa County","IA",12,2020,0,41.683918,-92.059123,33280
"Iowa County","WI",12,2020,0,43.001021,-90.133691,48652
"Iredell County","NC",12,2020,0,35.806251,-80.874524,234938
"Irion County","TX",12,2020,0,31.303424,-100.981304,1699
"Iron County","MI",12,2020,0,46.170254,-88.540526,24129
"Iron County","MO",12,2020,0,37.625971,-90.699587,9782
"Iron County","UT",12,2020,0,37.909304,-113.30674,81373
"Iron County","WI",12,2020,0,46.32655,-90.261298,15060
"Iroquois County","IL",12,2020,0,40.748867,-87.833601,64649
"Irwin County","GA",12,2020,0,31.604306,-83.277037,16935
"Isabella County","MI",12,2020,0,43.645233,-84.839424,94378
"Isanti County","MN",12,2020,0,45.562431,-93.296339,73874
"Island County","WA",12,2020,0,48.158554,-122.670649,25056
"Isle of Wight County","VA",12,2020,0,36.901418,-76.707569,39036
"Issaquena County","MS",12,2020,0,32.755539,-91.003535,4229
"Itasca County","MN",12,2020,0,47.490817,-93.611102,75556
"Itawamba County","MS",12,2020,0,34.281075,-88.363127,59536
"Izard County","AR",12,2020,0,36.094879,-91.913625,34657
"Jack County","TX",12,2020,0,33.23216,-98.171177,10575
"Jackson County","AL",12,2020,0,34.764114,-85.980056,136659
"Jackson County","AR",12,2020,0,35.596467,-91.223205,75923
"Jackson County","CO",12,2020,0,40.663432,-106.329248,830
"Jackson County","FL",12,2020,0,30.789249,-85.208814,131399
"Jackson County","GA",12,2020,0,34.130905,-83.562557,139397
"Jackson County","IA",12,2020,0,42.164226,-90.574582,51437
"Jackson County","IL",12,2020,0,37.786096,-89.381212,100726
"Jackson County","IN",12,2020,0,38.911957,-86.042516,100925
"Jackson County","MI",12,2020,0,42.248474,-84.420868,289463
"Jackson County","MN",12,2020,0,43.671111,-95.149731,21253
"Jackson County","MO",12,2020,0,39.005364,-94.343211,643827
"Jackson County","MS",12,2020,0,30.456005,-88.625101,236858
"Jackson County","NC",12,2020,0,35.285454,-83.123966,57230
"Jackson County","OH",12,2020,0,39.013477,-82.614142,53638
"Jackson County","OK",12,2020,0,34.594006,-99.412235,66846
"Jackson County","OR",12,2020,0,42.411621,-122.675611,154535
"Jackson County","SD",12,2020,0,43.677506,-101.626323,7538
"Jackson County","TN",12,2020,0,36.35425,-85.674128,26016
"Jackson County","TX",12,2020,0,28.959802,-96.58908,29716
"Jackson County","WI",12,2020,0,44.32459,-90.79951,66389
"Jackson County","WV",12,2020,0,38.834234,-81.677717,28884
"James City County","VA",12,2020,0,37.324837,-76.777888,45701
"Jasper County","GA",12,2020,0,33.316981,-83.689151,20398
"Jasper County","IA",12,2020,0,41.685551,-93.054147,80277
"Jasper County","IL",12,2020,0,39.004886,-88.150725,24840
"Jasper County","IN",12,2020,0,41.017688,-87.118814,65308
"Jasper County","MO",12,2020,0,37.205197,-94.337259,171826
"Jasper County","MS",12,2020,0,32.016748,-89.119176,34624
"Jasper County","SC",12,2020,0,32.43059,-81.021627,36940
"Jasper County","TX",12,2020,0,30.752932,-94.022294,33039
"Jay County","IN",12,2020,0,40.434956,-85.002331,42386
"Jeff Davis County","GA",12,2020,0,31.811615,-82.636825,33787
"Jeff Davis County","TX",12,2020,0,30.625357,-104.191873,2810
"Jefferson County","AL",12,2020,0,33.553444,-86.896536,1327277
"Jefferson County","AR",12,2020,0,34.277239,-91.929673,184237
"Jefferson County","CO",12,2020,0,39.579511,-105.245462,808520
"Jefferson County","FL",12,2020,0,30.396898,-83.921761,26863
"Jefferson County","GA",12,2020,0,33.058176,-82.420004,35683
"Jefferson County","IA",12,2020,0,41.006376,-91.966628,27187
"Jefferson County","ID",12,2020,0,43.796965,-112.318588,58173
"Jefferson County","IL",12,2020,0,38.30078,-88.92421,76468
"Jefferson County","IN",12,2020,0,38.783604,-85.44009,54954
"Jefferson County","MO",12,2020,0,38.25763,-90.543681,456015
"Jefferson County","MS",12,2020,0,31.733633,-91.043878,13260
"Jefferson County","MT",12,2020,0,46.124232,-112.059428,20257
"Jefferson County","NE",12,2020,0,40.175736,-97.143103,15365
"Jefferson County","NY",12,2020,0,43.996389,-76.052968,35592
"Jefferson County","OH",12,2020,0,40.399384,-80.763527,80605
"Jefferson County","OK",12,2020,0,34.105082,-97.83889,10274
"Jefferson County","OR",12,2020,0,44.645151,-121.178632,36278
"Jefferson County","PA",12,2020,0,41.138028,-79.012419,45007
"Jefferson County","TN",12,2020,0,36.048452,-83.441216,96533
"Jefferson County","TX",12,2020,0,29.854,-94.149331,372303
"Jefferson County","WA",12,2020,0,47.805708,-123.527057,6091
"Jefferson County","WI",12,2020,0,43.013804,-88.773985,204988
"Jefferson County","WV",12,2020,0,39.307398,-77.86322,58877
"Jefferson Davis County","MS",12,2020,0,31.564808,-89.827086,20984
"Jenkins County","GA",12,2020,0,32.794563,-81.971524,16124
"Jennings County","IN",12,2020,0,38.996229,-85.628103,44153
"Jerauld County","SD",12,2020,0,44.06341,-98.62317,7807
"Jerome County","ID",12,2020,0,42.691395,-114.262086,64986
"Jersey County","IL",12,2020,0,39.080195,-90.361385,52177
"Jim Hogg County","TX",12,2020,0,27.053231,-98.747572,8428
"Jim Wells County","TX",12,2020,0,27.733516,-98.090814,74218
"Jo Daviess County","IL",12,2020,0,42.362391,-90.21147,39311
"Johnson County","AR",12,2020,0,35.573359,-93.466322,47671
"Johnson County","GA",12,2020,0,32.694584,-82.66397,18637
"Johnson County","IA",12,2020,0,41.670668,-91.590529,323545
"Johnson County","IL",12,2020,0,37.460709,-88.882131,27175
"Johnson County","IN",12,2020,0,39.496092,-86.094264,307793
"Johnson County","MO",12,2020,0,38.741528,-93.811863,90712
"Johnson County","NE",12,2020,0,40.394955,-96.265264,13312
"Johnson County","TN",12,2020,0,36.453203,-81.861247,50594
"Johnson County","TX",12,2020,0,32.379654,-97.364906,260858
"Johnson County","WY",12,2020,0,44.044048,-106.588541,13735
"Johnston County","NC",12,2020,0,35.513419,-78.367348,305090
"Johnston County","OK",12,2020,0,34.313455,-96.654254,21124
"Jones County","GA",12,2020,0,33.021664,-83.562196,29590
"Jones County","IA",12,2020,0,42.125118,-91.116914,76993
"Jones County","MS",12,2020,0,31.616601,-89.168532,138483
"Jones County","NC",12,2020,0,35.032268,-77.356195,10483
"Jones County","SD",12,2020,0,43.951991,-100.686138,1975
"Jones County","TX",12,2020,0,32.743709,-99.87443,61790
"Josephine County","OR",12,2020,0,42.386983,-123.57162,27180
"Juab County","UT",12,2020,0,39.71412,-112.790471,19179
"Judith Basin County","MT",12,2020,0,47.032558,-110.30532,2233
"Juneau County","WI",12,2020,0,43.932836,-90.113984,69287
"Juniata County","PA",12,2020,0,40.530673,-77.400438,32888
"Kalamazoo County","MI",12,2020,0,42.246266,-85.532854,345857
"Kalawao County","HI",12,2020,0,21.218764,-156.97401,22
"Kalkaska County","MI",12,2020,0,44.678881,-85.088992,13769
"Kanabec County","MN",12,2020,0,45.94776,-93.297788,25922
"Kanawha County","WV",12,2020,0,38.328068,-81.523516,224953
"Kandiyohi County","MN",12,2020,0,45.152714,-95.004981,155310
"Kane County","IL",12,2020,0,41.939594,-88.42804,1162100
"Kane County","UT",12,2020,0,37.275089,-111.815329,8521
"Kankakee County","IL",12,2020,0,41.13951,-87.861117,308978
"Karnes County","TX",12,2020,0,28.908996,-97.852205,35451
"Kauai County","HI",12,2020,0,22.012038,-159.705965,4106
"Kaufman County","TX",12,2020,0,32.598944,-96.288377,224446
"Kay County","OK",12,2020,0,36.814885,-97.143862,79646
"Kearney County","NE",12,2020,0,40.50912,-98.947602,16877
"Keith County","NE",12,2020,0,41.194245,-101.644449,15581
"Kemper County","MS",12,2020,0,32.750136,-88.625631,18264
"Kendall County","IL",12,2020,0,41.58814,-88.430626,234652
"Kendall County","TX",12,2020,0,29.943525,-98.709269,32876
"Kenedy County","TX",12,2020,0,26.890213,-97.591143,565
"Kenosha County","WI",12,2020,0,42.587526,-87.879996,384361
"Kent County","DE",12,2020,0,39.097088,-75.502982,226770
"Kent County","MI",12,2020,0,43.032497,-85.547446,1228171
"Kent County","RI",12,2020,0,41.675118,-71.580282,243256
"Kent County","TX",12,2020,0,33.18478,-100.76972,1325
"Keokuk County","IA",12,2020,0,41.331182,-92.167721,22556
"Kern County","CA",12,2020,0,35.346629,-118.729506,1693082
"Kerr County","TX",12,2020,0,30.059953,-99.353339,52635
"Kershaw County","SC",12,2020,0,34.338356,-80.590885,105491
"Kewaunee County","WI",12,2020,0,44.605677,-87.448008,61412
"Keweenaw County","MI",12,2020,0,47.367297,-88.351332,2435
"Keya Paha County","NE",12,2020,0,42.87548,-99.718351,1013
"Kidder County","ND",12,2020,0,46.938273,-99.731198,7364
"Kimball County","NE",12,2020,0,41.199274,-103.703153,8421
"Kimble County","TX",12,2020,0,30.479472,-99.746396,5255
"King and Queen County","VA",12,2020,0,37.717772,-76.905581,4179
"King County","TX",12,2020,0,33.614268,-100.245345,134
"King County","WA",12,2020,0,47.490552,-121.833977,1700747
"King George County","VA",12,2020,0,38.27718,-77.162636,17303
"King William County","VA",12,2020,0,37.70826,-77.091054,11229
"Kingfisher County","OK",12,2020,0,35.949436,-97.934557,35647
"Kings County","CA",12,2020,0,36.072478,-119.81553,428860
"Kingsbury County","SD",12,2020,0,44.362969,-97.499313,15316
"Kinney County","TX",12,2020,0,29.347086,-100.4177,3622
"Kiowa County","CO",12,2020,0,38.387663,-102.756849,1705
"Kiowa County","OK",12,2020,0,34.921489,-98.981617,14692
"Kit Carson County","CO",12,2020,0,39.30534,-102.603023,12061
"Kitsap County","WA",12,2020,0,47.639595,-122.649634,100249
"Kittitas County","WA",12,2020,0,47.124441,-120.676709,43412
"Kittson County","MN",12,2020,0,48.77604,-96.780349,9705
"Klamath County","OR",12,2020,0,42.683761,-121.646168,45118
"Kleberg County","TX",12,2020,0,27.438735,-97.66062,45215
"Klickitat County","WA",12,2020,0,45.870446,-120.779305,11304
"Knox County","IL",12,2020,0,40.930945,-90.213792,109058
"Knox County","IN",12,2020,0,38.688381,-87.420358,78666
"Knox County","MO",12,2020,0,40.136856,-92.146835,4413
"Knox County","NE",12,2020,0,42.634404,-97.891349,18162
"Knox County","OH",12,2020,0,40.40362,-82.422393,67069
"Knox County","TN",12,2020,17119,35.992726,-83.937721,825147
"Knox County","TX",12,2020,0,33.61189,-99.730356,4530
"Koochiching County","MN",12,2020,0,48.245374,-93.782896,15362
"Kootenai County","ID",12,2020,0,47.675957,-116.695919,323296
"Kosciusko County","IN",12,2020,0,41.244293,-85.861575,187322
"Kossuth County","IA",12,2020,0,43.212356,-94.213965,42534
"La Crosse County","WI",12,2020,0,43.908222,-91.111758,299151
"La Paz County","AZ",12,2020,0,33.72761,-114.038806,35106
"La Plata County","CO",12,2020,0,37.287367,-107.839718,59103
"La Salle County","TX",12,2020,0,28.351098,-99.096774,15599
"Lac qui Parle County","MN",12,2020,0,44.999856,-96.176836,16065
"Lackawanna County","PA",12,2020,0,41.436636,-75.608768,215278
"Laclede County","MO",12,2020,0,37.659698,-92.594843,68972
"Lafayette County","AR",12,2020,0,33.240629,-93.611514,9300
"Lafayette County","FL",12,2020,0,29.990066,-83.17851,43035
"Lafayette County","MO",12,2020,0,39.068705,-93.802639,56387
"Lafayette County","MS",12,2020,0,34.353078,-89.485385,116824
"Lafayette County","WI",12,2020,0,42.655578,-90.130292,38925
"LaGrange County","IN",12,2020,0,41.642462,-85.427845,56880
"Lake County","CA",12,2020,0,39.108009,-122.745217,41845
"Lake County","CO",12,2020,0,39.205341,-106.350079,11343
"Lake County","FL",12,2020,4026,28.764113,-81.712282,399201
"Lake County","IL",12,2020,0,42.185968,-87.805939,1357485
"Lake County","IN",12,2020,0,41.472247,-87.374337,1097788
"Lake County","MI",12,2020,0,43.995187,-85.8114,8166
"Lake County","MN",12,2020,0,47.517111,-91.411704,15515
"Lake County","MT",12,2020,0,47.642901,-114.083687,40480
"Lake County","OH",12,2020,0,41.778142,-81.19733,326335
"Lake County","OR",12,2020,0,42.788401,-120.38979,5358
"Lake County","SD",12,2020,0,44.02845,-97.123223,29545
"Lake County","TN",12,2020,0,36.333905,-89.485536,40466
"Lake of the Woods County","MN",12,2020,0,48.7681,-94.904633,4169
"Lamar County","AL",12,2020,0,33.787085,-88.087431,27450
"Lamar County","GA",12,2020,0,33.07444,-84.146689,28447
"Lamar County","MS",12,2020,0,31.197586,-89.506369,109905
"Lamar County","TX",12,2020,0,33.667263,-95.570348,102423
"Lamb County","TX",12,2020,0,34.068861,-102.348018,44113
"Lamoille County","VT",12,2020,0,44.611192,-72.632659,6307
"LaMoure County","ND",12,2020,0,46.464195,-98.526057,13473
"Lampasas County","TX",12,2020,0,31.196731,-98.240889,17880
"Lancaster County","NE",12,2020,0,40.783547,-96.688658,627937
"Lancaster County","PA",12,2020,0,40.041992,-76.250198,708974
"Lancaster County","SC",12,2020,0,34.686818,-80.703688,134154
"Lancaster County","VA",12,2020,0,37.704843,-76.412663,8601
"Lander County","NV",12,2020,0,39.90021,-117.04724,10077
"Lane County","OR",12,2020,0,43.928334,-122.897581,178816
"Langlade County","WI",12,2020,0,45.254863,-89.06707,55550
"Lanier County","GA",12,2020,0,31.038197,-83.063164,14035
"Lapeer County","MI",12,2020,0,43.088633,-83.224325,117586
"LaPorte County","IN",12,2020,0,41.549013,-86.744739,197012
"Laramie County","WY",12,2020,0,41.29283,-104.660395,198482
"Larimer County","CO",12,2020,0,40.658093,-105.486764,409577
"Las Animas County","CO",12,2020,0,37.318831,-104.04411,12084
"LaSalle County","IL",12,2020,0,41.343341,-88.885931,231961
"Lassen County","CA",12,2020,0,40.715287,-120.621223,108607
"Latah County","ID",12,2020,0,46.81892,-116.730974,61636
"Latimer County","OK",12,2020,0,34.875137,-95.272262,12493
"Lauderdale County","AL",12,2020,0,34.904168,-87.651108,165081
"Lauderdale County","MS",12,2020,0,32.403998,-88.660449,132959
"Lauderdale County","TN",12,2020,0,35.762951,-89.627732,73397
"Laurens County","GA",12,2020,0,32.39322,-82.926317,96555
"Laurens County","SC",12,2020,0,34.483676,-82.005498,93263
"Lavaca County","TX",12,2020,0,29.382578,-96.923633,48631
"Lawrence County","AL",12,2020,0,34.529776,-87.321865,51747
"Lawrence County","AR",12,2020,0,36.041098,-91.101153,42506
"Lawrence County","IL",12,2020,0,38.718954,-87.730221,47546
"Lawrence County","IN",12,2020,0,38.839815,-86.48782,82246
"Lawrence County","MO",12,2020,0,37.10659,-93.830551,66181
"Lawrence County","MS",12,2020,0,31.550009,-90.10753,26064
"Lawrence County","OH",12,2020,0,38.603866,-82.517186,89415
"Lawrence County","PA",12,2020,0,40.992735,-80.334446,103870
"Lawrence County","SD",12,2020,0,44.348514,-103.806362,72755
"Lawrence County","TN",12,2020,0,35.220476,-87.396546,112959
"Le Flore County","OK",12,2020,0,34.897356,-94.695074,93306
"Le Sueur County","MN",12,2020,0,44.373421,-93.730106,55325
"Lea County","NM",12,2020,0,32.795687,-103.413271,180669
"Leake County","MS",12,2020,0,32.76063,-89.52225,52620
"Lebanon County","PA",12,2020,0,40.371448,-76.464819,223118
"Lee County","AL",12,2020,0,32.604064,-85.353048,279149
"Lee County","AR",12,2020,0,34.779505,-90.779717,41288
"Lee County","FL",12,2020,19855,26.563273,-81.984182,1099390
"Lee County","GA",12,2020,0,31.818419,-84.146681,38290
"Lee County","IA",12,2020,0,40.647588,-91.477157,80126
"Lee County","IL",12,2020,0,41.747447,-89.299362,74895
"Lee County","MS",12,2020,0,34.29237,-88.682439,201307
"Lee County","NC",12,2020,0,35.476336,-79.172117,92280
"Lee County","SC",12,2020,0,34.15864,-80.251209,31666
"Lee County","TX",12,2020,0,30.321498,-96.976823,20371
"Lee County","VA",12,2020,0,36.701721,-83.130112,37209
"Leelanau County","MI",12,2020,0,45.146182,-86.051574,16234
"Leflore County","MS",12,2020,0,33.54979,-90.294934,73319
"Lehigh County","PA",12,2020,0,40.614241,-75.590627,498795
"Lemhi County","ID",12,2020,0,44.928506,-113.887042,13870
"Lenawee County","MI",12,2020,0,41.896022,-84.074356,144414
"Lenoir County","NC",12,2020,0,35.240066,-77.635514,84954
"Leon County","FL",12,2020,2916,30.45931,-84.2778,534363
"Leon County","TX",12,2020,0,31.300493,-95.995622,19197
"Levy County","FL",12,2020,0,29.271854,-82.831233,50459
"Lewis and Clark County","MT",12,2020,0,47.132013,-112.373367,124359
"Lewis County","ID",12,2020,0,46.236328,-116.42376,9178
"Lewis County","MO",12,2020,0,40.084559,-91.728803,15139
"Lewis County","NY",12,2020,0,43.782681,-75.44414,19213
"Lewis County","TN",12,2020,0,35.523244,-87.496983,30626
"Lewis County","WA",12,2020,0,46.580071,-122.377444,56883
"Lewis County","WV",12,2020,0,38.988877,-80.495477,11414
"Lexington County","SC",12,2020,0,33.899246,-81.266118,430046
"Liberty County","FL",12,2020,0,30.259849,-84.86858,20613
"Liberty County","GA",12,2020,0,31.807458,-81.457871,54411
"Liberty County","MT",12,2020,0,48.559654,-111.036924,3032
"Liberty County","TX",12,2020,0,30.158508,-94.844061,107870
"Licking County","OH",12,2020,0,40.091505,-82.483435,267247
"Limestone County","AL",12,2020,0,34.810239,-86.981399,173775
"Limestone County","TX",12,2020,0,31.547543,-96.593623,32563
"Lincoln County","AR",12,2020,0,33.956385,-91.742355,83133
"Lincoln County","CO",12,2020,0,38.99374,-103.507555,20654
"Lincoln County","GA",12,2020,0,33.792151,-82.448299,11668
"Lincoln County","ID",12,2020,0,42.990782,-114.153089,12647
"Lincoln County","MN",12,2020,0,44.408238,-96.272032,13140
"Lincoln County","MO",12,2020,0,39.062255,-90.962916,95402
"Lincoln County","MS",12,2020,0,31.535216,-90.453566,69828
"Lincoln County","MT",12,2020,0,48.552385,-115.463185,28792
"Lincoln County","NC",12,2020,0,35.488491,-81.226893,137555
"Lincoln County","NE",12,2020,0,41.050322,-100.744481,84831
"Lincoln County","NM",12,2020,0,33.740841,-105.449805,29053
"Lincoln County","NV",12,2020,0,37.634605,-114.863037,7738
"Lincoln County","OK",12,2020,0,35.703117,-96.881392,54709
"Lincoln County","OR",12,2020,0,44.641061,-123.911212,24041
"Lincoln County","SD",12,2020,0,43.27942,-96.722286,192085
"Lincoln County","TN",12,2020,0,35.142784,-86.593403,78781
"Lincoln County","WA",12,2020,0,47.582743,-118.417692,6564
"Lincoln County","WI",12,2020,0,45.333148,-89.73224,72938
"Lincoln County","WV",12,2020,0,38.17177,-82.077623,18224
"Lincoln County","WY",12,2020,0,42.229993,-110.682961,24453
"Linn County","IA",12,2020,0,42.077951,-91.597674,485729
"Linn County","MO",12,2020,0,39.86444,-93.108019,11701
"Linn County","OR",12,2020,0,44.488898,-122.537208,66702
"Lipscomb County","TX",12,2020,0,36.2802,-100.272683,5750
"Little River County","AR",12,2020,0,33.701941,-94.236287,22284
"Live Oak County","TX",12,2020,0,28.351535,-98.126961,19965
"Livingston County","IL",12,2020,0,40.894376,-88.552852,86028
"Livingston County","MI",12,2020,0,42.602532,-83.911718,219560
"Livingston County","MO",12,2020,0,39.778587,-93.548201,28181
"Livingston County","NY",12,2020,0,42.729042,-77.778463,39051
"Llano County","TX",12,2020,0,30.707584,-98.68469,14984
"Logan County","AR",12,2020,0,35.218654,-93.72091,37287
"Logan County","CO",12,2020,0,40.728091,-103.090464,88660
"Logan County","IL",12,2020,0,40.129277,-89.365309,72603
"Logan County","ND",12,2020,0,46.469278,-99.504585,6020
"Logan County","NE",12,2020,0,41.542155,-100.443665,1783
"Logan County","OH",12,2020,0,40.387553,-83.766343,61972
"Logan County","OK",12,2020,0,35.914277,-97.450952,64369
"Logan County","WV",12,2020,0,37.830591,-81.940853,40917
"Long County","GA",12,2020,0,31.749563,-81.74287,12759
"Lonoke County","AR",12,2020,0,34.755114,-91.894132,106325
"Lorain County","OH",12,2020,0,41.438805,-82.179722,361848
"Los Alamos County","NM",12,2020,0,35.870047,-106.307968,6830
"Los Angeles County","CA",12,2020,500809,34.196398,-118.261862,17784563
"Loudon County","TN",12,2020,0,35.735085,-84.314085,100459
"Loudoun County","VA",12,2020,0,39.0812,-77.638898,376223
"Louisa County","IA",12,2020,0,41.218211,-91.256994,30321
"Louisa County","VA",12,2020,0,37.972704,-77.959795,21857
"Loup County","NE",12,2020,0,41.903183,-99.509852,1037
"Love County","OK",12,2020,0,33.957804,-97.245093,23317
"Loving County","TX",12,2020,0,31.844936,-103.561229,31
"Lowndes County","AL",12,2020,0,32.147888,-86.650586,27191
"Lowndes County","GA",12,2020,0,30.833145,-83.268995,230929
"Lowndes County","MS",12,2020,0,33.471424,-88.439723,105867
"Lubbock County","TX",12,2020,0,33.611469,-101.819944,1169070
"Lucas County","IA",12,2020,0,41.033344,-93.331467,13698
"Lucas County","OH",12,2020,0,41.682321,-83.468903,669885
"Luce County","MI",12,2020,0,46.510988,-85.517552,28882
"Lumpkin County","GA",12,2020,0,34.56814,-83.998925,49453
"Luna County","NM",12,2020,0,32.184523,-107.747191,67549
"Lunenburg County","VA",12,2020,0,36.945555,-78.240528,7210
"Luzerne County","PA",12,2020,0,41.173078,-75.976053,427409
"Lycoming County","PA",12,2020,0,41.343882,-77.055262,129830
"Lyman County","SD",12,2020,0,43.894812,-99.841925,15399
"Lynn County","TX",12,2020,0,33.178412,-101.818493,13891
"Lyon County","IA",12,2020,0,43.38358,-96.207201,35960
"Lyon County","MN",12,2020,0,44.409195,-95.847268,80910
"Lyon County","NV",12,2020,0,39.022213,-119.197425,56113
"Mackinac County","MI",12,2020,0,46.167868,-85.303762,10855
"Macomb County","MI",12,2020,0,42.671553,-82.911456,1413473
"Macon County","AL",12,2020,0,32.387027,-85.692887,27038
"Macon County","GA",12,2020,0,32.362686,-84.051231,12345
"Macon County","IL",12,2020,0,39.860237,-88.961529,229366
"Macon County","MO",12,2020,0,39.829795,-92.56434,25001
"Macon County","NC",12,2020,0,35.152959,-83.421901,35140
"Macon County","TN",12,2020,0,36.537757,-86.00096,69088
"Macoupin County","IL",12,2020,0,39.265914,-89.92633,88185
"Madera County","CA",12,2020,0,37.209821,-119.749802,256493
"Madison County","AL",12,2020,0,34.764238,-86.55108,557667
"Madison County","AR",12,2020,0,36.012545,-93.724053,26521
"Madison County","FL",12,2020,0,30.447233,-83.470416,44048
"Madison County","GA",12,2020,0,34.128526,-83.203737,47008
"Madison County","IA",12,2020,0,41.330622,-94.015184,26268
"Madison County","ID",12,2020,0,43.788614,-111.656993,151571
"Madison County","IL",12,2020,0,38.82712,-89.900227,565211
"Madison County","IN",12,2020,0,40.166203,-85.722454,230321
"Madison County","MO",12,2020,0,37.474481,-90.343413,32702
"Madison County","MS",12,2020,0,32.63437,-90.03416,189457
"Madison County","MT",12,2020,0,45.32529,-111.913791,14448
"Madison County","NC",12,2020,0,35.864206,-82.712631,21000
"Madison County","NE",12,2020,0,41.909929,-97.606856,110999
"Madison County","NY",12,2020,0,42.910026,-75.663575,51054
"Madison County","OH",12,2020,0,39.89661,-83.400887,75902
"Madison County","TN",12,2020,0,35.606056,-88.833424,209552
"Madison County","TX",12,2020,0,30.966878,-95.930372,31002
"Madison County","VA",12,2020,0,38.412059,-78.276961,7489
"Mahaska County","IA",12,2020,0,41.330797,-92.636366,47014
"Mahnomen County","MN",12,2020,0,47.328387,-95.811089,11163
"Mahoning County","OH",12,2020,0,41.01088,-80.770396,373640
"Major County","OK",12,2020,0,36.313119,-98.542015,19604
"Malheur County","OR",12,2020,0,43.188625,-117.603191,82916
"Manatee County","FL",12,2020,0,27.475556,-82.393144,604096
"Manistee County","MI",12,2020,0,44.245268,-86.327537,16349
"Manitowoc County","WI",12,2020,0,44.156137,-87.577352,197210
"Marathon County","WI",12,2020,0,44.898036,-89.757823,371821
"Marengo County","AL",12,2020,0,32.247591,-87.791091,47239
"Maricopa County","AZ",12,2020,26619,33.345176,-112.49893,8277933
"Maries County","MO",12,2020,0,38.162615,-91.923601,13046
"Marin County","CA",12,2020,0,38.051367,-122.746396,271608
"Marinette County","WI",12,2020,0,45.346899,-87.991198,111990
"Marion County","AL",12,2020,0,34.138219,-87.881551,54591
"Marion County","AR",12,2020,0,36.266664,-92.678577,16674
"Marion County","FL",12,2020,0,29.202805,-82.0431,475909
"Marion County","GA",12,2020,0,32.359312,-84.528735,8522
"Marion County","IA",12,2020,0,41.331433,-93.093868,74355
"Marion County","IL",12,2020,0,38.648236,-88.920362,96434
"Marion County","IN",12,2020,0,39.782976,-86.135794,1861725
"Marion County","MO",12,2020,0,39.807538,-91.635379,65614
"Marion County","MS",12,2020,0,31.230167,-89.821712,46431
"Marion County","OH",12,2020,0,40.588034,-83.168803,186083
"Marion County","OR",12,2020,0,44.900898,-122.57626,365801
"Marion County","SC",12,2020,0,34.08362,-79.354001,49735
"Marion County","TN",12,2020,0,35.133422,-85.618399,47285
"Marion County","TX",12,2020,0,32.798182,-94.356853,6983
"Marion County","WV",12,2020,0,39.505839,-80.243402,41395
"Mariposa County","CA",12,2020,0,37.574343,-119.911721,5803
"Marlboro County","SC",12,2020,0,34.60167,-79.679435,52158
"Marquette County","MI",12,2020,0,46.656596,-87.584028,129490
"Marquette County","WI",12,2020,0,43.826053,-89.409095,38611
"Marshall County","AL",12,2020,0,34.309564,-86.321668,247308
"Marshall County","IA",12,2020,0,42.0417,-92.981403,117825
"Marshall County","IL",12,2020,0,41.031119,-89.342371,15829
"Marshall County","IN",12,2020,0,41.325003,-86.269036,124091
"Marshall County","MN",12,2020,0,48.362728,-96.357761,19318
"Marshall County","MS",12,2020,0,34.76619,-89.504231,79621
"Marshall County","OK",12,2020,0,34.027007,-96.770533,29836
"Marshall County","SD",12,2020,0,45.737044,-97.58087,7225
"Marshall County","TN",12,2020,0,35.468329,-86.765868,71767
"Marshall County","WV",12,2020,0,39.854426,-80.671794,52272
"Martin County","FL",12,2020,0,27.083604,-80.398201,218197
"Martin County","IN",12,2020,0,38.705322,-86.801847,15182
"Martin County","MN",12,2020,0,43.677173,-94.547096,44460
"Martin County","NC",12,2020,0,35.847301,-77.119602,33403
"Martin County","TX",12,2020,0,32.30983,-101.961836,12887
"Mason County","IL",12,2020,0,40.236993,-89.913575,27383
"Mason County","MI",12,2020,0,43.957196,-86.442937,25695
"Mason County","TX",12,2020,0,30.703916,-99.237302,5885
"Mason County","WA",12,2020,0,47.350832,-123.173103,37394
"Mason County","WV",12,2020,0,38.770914,-82.029007,25025
"Massac County","IL",12,2020,0,37.216119,-88.705658,24032
"Matagorda County","TX",12,2020,0,28.77476,-96.001532,49624
"Mathews County","VA",12,2020,0,37.425348,-76.268808,7202
"Maui County","HI",12,2020,0,20.855931,-156.60155,33755
"Maury County","TN",12,2020,0,35.615696,-87.077763,239679
"Maverick County","TX",12,2020,0,28.729787,-100.316678,173452
"Mayes County","OK",12,2020,0,36.303804,-95.235638,64308
"McClain County","OK",12,2020,0,35.016436,-97.449803,94694
"McCone County","MT",12,2020,0,47.629628,-105.757222,3978
"McCook County","SD",12,2020,0,43.680416,-97.358048,19848
"McCormick County","SC",12,2020,0,33.897599,-82.316196,12460
"McCulloch County","TX",12,2020,0,31.205477,-99.359856,11635
"McCurtain County","OK",12,2020,0,34.117073,-94.766086,79975
"McDonald County","MO",12,2020,0,36.627955,-94.343716,56135
"McDonough County","IL",12,2020,0,40.455808,-90.678954,56190
"McDowell County","NC",12,2020,0,35.682271,-82.048044,77743
"McDowell County","WV",12,2020,0,37.38276,-81.658204,24206
"McDuffie County","GA",12,2020,0,33.480613,-82.479533,34920
"McHenry County","IL",12,2020,0,42.324298,-88.452245,526683
"McHenry County","ND",12,2020,0,48.233842,-100.633267,15728
"McIntosh County","GA",12,2020,0,31.485629,-81.372141,13898
"McIntosh County","ND",12,2020,0,46.108682,-99.416487,8958
"McIntosh County","OK",12,2020,0,35.369108,-95.671787,33201
"McKean County","PA",12,2020,0,41.81459,-78.572463,35048
"McKenzie County","ND",12,2020,0,47.742475,-103.403215,30313
"McKinley County","NM",12,2020,0,35.584062,-108.253294,266236
"McLean County","IL",12,2020,0,40.494559,-88.844539,318620
"McLean County","ND",12,2020,0,47.653206,-101.421914,33785
"McLennan County","TX",12,2020,0,31.549596,-97.201511,517680
"McLeod County","MN",12,2020,0,44.821657,-94.272323,86668
"McMinn County","TN",12,2020,0,35.424472,-84.619949,110790
"McMullen County","TX",12,2020,0,28.384922,-98.578853,1372
"McNairy County","TN",12,2020,0,35.175375,-88.56374,52750
"McPherson County","NE",12,2020,0,41.648414,-101.120851,581
"McPherson County","SD",12,2020,0,45.784249,-99.211421,5168
"Meade County","SD",12,2020,0,44.605282,-102.714169,63285
"Meagher County","MT",12,2020,0,46.5857,-110.92174,3418
"Mecklenburg County","NC",12,2020,0,35.246862,-80.833832,1652000
"Mecklenburg County","VA",12,2020,0,36.687256,-78.368959,35230
"Mecosta County","MI",12,2020,0,43.635295,-85.332751,46825
"Medina County","OH",12,2020,0,41.116174,-81.899764,233306
"Medina County","TX",12,2020,0,29.353661,-99.111085,68561
"Meeker County","MN",12,2020,0,45.123155,-94.527346,53331
"Meigs County","OH",12,2020,0,39.089807,-82.028397,20899
"Meigs County","TN",12,2020,0,35.512203,-84.816102,23081
"Mellette County","SD",12,2020,0,43.581334,-100.75521,6374
"Menard County","IL",12,2020,0,40.022569,-89.794133,19468
"Menard County","TX",12,2020,0,30.885268,-99.858861,4401
"Mendocino County","CA",12,2020,0,39.432388,-123.442881,64480
"Menominee County","MI",12,2020,0,45.535568,-87.501457,47436
"Menominee County","WI",12,2020,0,44.991304,-88.669251,20287
"Merced County","CA",12,2020,0,37.194806,-120.722802,482707
"Mercer County","IL",12,2020,0,41.205605,-90.74177,29415
"Mercer County","MO",12,2020,0,40.421413,-93.567631,3385
"Mercer County","ND",12,2020,0,47.307147,-101.833328,29784
"Mercer County","NJ",12,2020,0,40.282503,-74.703724,514289
"Mercer County","OH",12,2020,0,40.535333,-84.632059,110516
"Mercer County","PA",12,2020,0,41.300014,-80.252786,143578
"Mercer County","WV",12,2020,0,37.403448,-81.106456,61864
"Meriwether County","GA",12,2020,0,33.029267,-84.667058,28821
"Merrick County","NE",12,2020,0,41.16979,-98.031057,16889
"Merrimack County","NH",12,2020,0,43.299579,-71.680041,106532
"Mesa County","CO",12,2020,0,39.019524,-108.460571,239760
"Miami County","IN",12,2020,0,40.772883,-86.044258,72538
"Miami County","OH",12,2020,0,40.053326,-84.228413,197640
"Miami-Dade County","FL",12,2020,122467,25.616009,-80.50375,8210361
"Middlesex County","MA",12,2020,0,42.481718,-71.394916,1904517
"Middlesex County","NJ",12,2020,0,40.439621,-74.40743,1189188
"Middlesex County","VA",12,2020,0,37.606975,-76.528082,6815
"Midland County","MI",12,2020,0,43.648203,-84.379414,111279
"Midland County","TX",12,2020,0,31.814269,-102.002454,298053
"Mifflin County","PA",12,2020,0,40.601615,-77.651832,86292
"Milam County","TX",12,2020,0,30.791242,-96.984395,32855
"Millard County","UT",12,2020,0,38.956744,-113.133092,21538
"Mille Lacs County","MN",12,2020,0,45.929043,-93.632996,58134
"Miller County","AR",12,2020,0,33.305505,-93.901502,75302
"Miller County","GA",12,2020,0,31.162931,-84.730398,14505
"Miller County","MO",12,2020,0,38.21668,-92.429876,56024
"Mills County","IA",12,2020,0,41.033703,-95.619101,37125
"Mills County","TX",12,2020,0,31.494888,-98.594623,6407
"Milwaukee County","WI",12,2020,0,42.912643,-87.862312,2605071
"Miner County","SD",12,2020,0,44.021541,-97.608122,6615
"Mineral County","CO",12,2020,0,37.549067,-107.003236,1186
"Mineral County","MT",12,2020,0,47.129687,-115.085385,3858
"Mineral County","NV",12,2020,0,38.516647,-118.416279,5035
"Mineral County","WV",12,2020,0,39.404781,-78.95669,56824
"Mingo County","WV",12,2020,0,37.721161,-82.158989,36662
"Minidoka County","ID",12,2020,0,42.857211,-113.63984,59376
"Minnehaha County","SD",12,2020,0,43.667472,-96.795726,719803
"Missaukee County","MI",12,2020,0,44.325424,-85.085471,11994
"Mississippi County","AR",12,2020,0,35.766944,-90.052207,120364
"Mississippi County","MO",12,2020,0,36.826264,-89.295929,32280
"Missoula County","MT",12,2020,0,47.027263,-113.892691,177165
"Mitchell County","GA",12,2020,0,31.228997,-84.192038,36057
"Mitchell County","IA",12,2020,0,43.348564,-92.784466,28784
"Mitchell County","NC",12,2020,0,36.013102,-82.163554,22321
"Mitchell County","TX",12,2020,0,32.304117,-100.924392,12946
